[{"Id":1,"City":"Tokyo","Latitude":35.6897,"Longitude":139.6922,"Country":"Japan"},{"Id":2,"City":"Jakarta","Latitude":-6.175,"Longitude":106.8275,"Country":"Indonesia"},{"Id":3,"City":"Delhi","Latitude":28.61,"Longitude":77.23,"Country":"India"},{"Id":4,"City":"Guangzhou","Latitude":23.13,"Longitude":113.26,"Country":"China"},{"Id":5,"City":"Mumbai","Latitude":19.0761,"Longitude":72.8775,"Country":"India"},{"Id":6,"City":"Manila","Latitude":14.5958,"Longitude":120.9772,"Country":"Philippines"},{"Id":7,"City":"Shanghai","Latitude":31.1667,"Longitude":121.4667,"Country":"China"},{"Id":8,"City":"S\u00E3o Paulo","Latitude":-23.55,"Longitude":-46.6333,"Country":"Brazil"},{"Id":9,"City":"Seoul","Latitude":37.56,"Longitude":126.99,"Country":"South Korea"},{"Id":10,"City":"Mexico City","Latitude":19.4333,"Longitude":-99.1333,"Country":"Mexico"},{"Id":11,"City":"Cairo","Latitude":30.0444,"Longitude":31.2358,"Country":"Egypt"},{"Id":12,"City":"New York","Latitude":40.6943,"Longitude":-73.9249,"Country":"United States"},{"Id":13,"City":"Dhaka","Latitude":23.7639,"Longitude":90.3889,"Country":"Bangladesh"},{"Id":14,"City":"Beijing","Latitude":39.904,"Longitude":116.4075,"Country":"China"},{"Id":15,"City":"Kolkata","Latitude":22.5675,"Longitude":88.37,"Country":"India"},{"Id":16,"City":"Bangkok","Latitude":13.7525,"Longitude":100.4942,"Country":"Thailand"},{"Id":17,"City":"Shenzhen","Latitude":22.535,"Longitude":114.054,"Country":"China"},{"Id":18,"City":"Moscow","Latitude":55.7558,"Longitude":37.6178,"Country":"Russia"},{"Id":19,"City":"Buenos Aires","Latitude":-34.5997,"Longitude":-58.3819,"Country":"Argentina"},{"Id":20,"City":"Lagos","Latitude":6.455,"Longitude":3.3841,"Country":"Nigeria"},{"Id":21,"City":"Istanbul","Latitude":41.0136,"Longitude":28.955,"Country":"Turkey"},{"Id":22,"City":"Karachi","Latitude":24.86,"Longitude":67.01,"Country":"Pakistan"},{"Id":23,"City":"Bangalore","Latitude":12.9789,"Longitude":77.5917,"Country":"India"},{"Id":24,"City":"Ho Chi Minh City","Latitude":10.7756,"Longitude":106.7019,"Country":"Vietnam"},{"Id":25,"City":"Osaka","Latitude":34.6939,"Longitude":135.5022,"Country":"Japan"},{"Id":26,"City":"Chengdu","Latitude":30.66,"Longitude":104.0633,"Country":"China"},{"Id":27,"City":"Tehran","Latitude":35.6892,"Longitude":51.3889,"Country":"Iran"},{"Id":28,"City":"Kinshasa","Latitude":-4.325,"Longitude":15.3222,"Country":"Congo (Kinshasa)"},{"Id":29,"City":"Rio de Janeiro","Latitude":-22.9111,"Longitude":-43.2056,"Country":"Brazil"},{"Id":30,"City":"Chennai","Latitude":13.0825,"Longitude":80.275,"Country":"India"},{"Id":31,"City":"Xi\u2019an","Latitude":34.2667,"Longitude":108.9,"Country":"China"},{"Id":32,"City":"Lahore","Latitude":31.5497,"Longitude":74.3436,"Country":"Pakistan"},{"Id":33,"City":"Chongqing","Latitude":29.55,"Longitude":106.5069,"Country":"China"},{"Id":34,"City":"Los Angeles","Latitude":34.1141,"Longitude":-118.4068,"Country":"United States"},{"Id":35,"City":"Baoding","Latitude":38.8671,"Longitude":115.4845,"Country":"China"},{"Id":36,"City":"London","Latitude":51.5072,"Longitude":-0.1275,"Country":"United Kingdom"},{"Id":37,"City":"Paris","Latitude":48.8567,"Longitude":2.3522,"Country":"France"},{"Id":38,"City":"Linyi","Latitude":35.1041,"Longitude":118.3502,"Country":"China"},{"Id":39,"City":"Dongguan","Latitude":23.0475,"Longitude":113.7493,"Country":"China"},{"Id":40,"City":"Hyderabad","Latitude":17.385,"Longitude":78.4867,"Country":"India"},{"Id":41,"City":"Tianjin","Latitude":39.1467,"Longitude":117.2056,"Country":"China"},{"Id":42,"City":"Lima","Latitude":-12.06,"Longitude":-77.0375,"Country":"Peru"},{"Id":43,"City":"Wuhan","Latitude":30.5872,"Longitude":114.2881,"Country":"China"},{"Id":44,"City":"Nanyang","Latitude":32.9987,"Longitude":112.5292,"Country":"China"},{"Id":45,"City":"Hangzhou","Latitude":30.25,"Longitude":120.1675,"Country":"China"},{"Id":46,"City":"Foshan","Latitude":23.0292,"Longitude":113.1056,"Country":"China"},{"Id":47,"City":"Nagoya","Latitude":35.1833,"Longitude":136.9,"Country":"Japan"},{"Id":48,"City":"Taipei","Latitude":25.0375,"Longitude":121.5625,"Country":"Taiwan"},{"Id":49,"City":"Tongshan","Latitude":34.261,"Longitude":117.1859,"Country":"China"},{"Id":50,"City":"Luanda","Latitude":-8.8383,"Longitude":13.2344,"Country":"Angola"},{"Id":51,"City":"Zhoukou","Latitude":33.625,"Longitude":114.6418,"Country":"China"},{"Id":52,"City":"Ganzhou","Latitude":25.8292,"Longitude":114.9336,"Country":"China"},{"Id":53,"City":"Kuala Lumpur","Latitude":3.1478,"Longitude":101.6953,"Country":"Malaysia"},{"Id":54,"City":"Heze","Latitude":35.2333,"Longitude":115.4333,"Country":"China"},{"Id":55,"City":"Quanzhou","Latitude":24.9139,"Longitude":118.5858,"Country":"China"},{"Id":56,"City":"Chicago","Latitude":41.8375,"Longitude":-87.6866,"Country":"United States"},{"Id":57,"City":"Nanjing","Latitude":32.0608,"Longitude":118.7789,"Country":"China"},{"Id":58,"City":"Jining","Latitude":35.4,"Longitude":116.5667,"Country":"China"},{"Id":59,"City":"Hanoi","Latitude":21.0283,"Longitude":105.8542,"Country":"Vietnam"},{"Id":60,"City":"Pune","Latitude":18.5203,"Longitude":73.8567,"Country":"India"},{"Id":61,"City":"Fuyang","Latitude":32.8986,"Longitude":115.8045,"Country":"China"},{"Id":62,"City":"Ahmedabad","Latitude":23.03,"Longitude":72.58,"Country":"India"},{"Id":63,"City":"Johannesburg","Latitude":-26.2044,"Longitude":28.0456,"Country":"South Africa"},{"Id":64,"City":"Bogot\u00E1","Latitude":4.7111,"Longitude":-74.0722,"Country":"Colombia"},{"Id":65,"City":"Dar es Salaam","Latitude":-6.8161,"Longitude":39.2803,"Country":"Tanzania"},{"Id":66,"City":"Shenyang","Latitude":41.8025,"Longitude":123.4281,"Country":"China"},{"Id":67,"City":"Khartoum","Latitude":15.5006,"Longitude":32.56,"Country":"Sudan"},{"Id":68,"City":"Shangqiu","Latitude":34.4259,"Longitude":115.6467,"Country":"China"},{"Id":69,"City":"Cangzhou","Latitude":38.3037,"Longitude":116.8452,"Country":"China"},{"Id":70,"City":"Hong Kong","Latitude":22.3,"Longitude":114.2,"Country":"Hong Kong"},{"Id":71,"City":"Shaoyang","Latitude":27.2418,"Longitude":111.4725,"Country":"China"},{"Id":72,"City":"Zhanjiang","Latitude":21.1967,"Longitude":110.4031,"Country":"China"},{"Id":73,"City":"Yancheng","Latitude":33.3936,"Longitude":120.1339,"Country":"China"},{"Id":74,"City":"Hengyang","Latitude":26.8968,"Longitude":112.5857,"Country":"China"},{"Id":75,"City":"Riyadh","Latitude":24.6333,"Longitude":46.7167,"Country":"Saudi Arabia"},{"Id":76,"City":"Zhumadian","Latitude":32.9773,"Longitude":114.0253,"Country":"China"},{"Id":77,"City":"Santiago","Latitude":-33.4372,"Longitude":-70.6506,"Country":"Chile"},{"Id":78,"City":"Xingtai","Latitude":37.0659,"Longitude":114.4753,"Country":"China"},{"Id":79,"City":"Chattogram","Latitude":22.335,"Longitude":91.8325,"Country":"Bangladesh"},{"Id":80,"City":"Bijie","Latitude":27.3019,"Longitude":105.2863,"Country":"China"},{"Id":81,"City":"Shangrao","Latitude":28.4419,"Longitude":117.9633,"Country":"China"},{"Id":82,"City":"Zunyi","Latitude":27.705,"Longitude":106.9336,"Country":"China"},{"Id":83,"City":"Surat","Latitude":21.1702,"Longitude":72.8311,"Country":"India"},{"Id":84,"City":"Surabaya","Latitude":-7.2458,"Longitude":112.7378,"Country":"Indonesia"},{"Id":85,"City":"Huanggang","Latitude":30.45,"Longitude":114.875,"Country":"China"},{"Id":86,"City":"Maoming","Latitude":21.6618,"Longitude":110.9178,"Country":"China"},{"Id":87,"City":"Nanchong","Latitude":30.7991,"Longitude":106.0784,"Country":"China"},{"Id":88,"City":"Xinyang","Latitude":32.1264,"Longitude":114.0672,"Country":"China"},{"Id":89,"City":"Madrid","Latitude":40.4169,"Longitude":-3.7033,"Country":"Spain"},{"Id":90,"City":"Baghdad","Latitude":33.3153,"Longitude":44.3661,"Country":"Iraq"},{"Id":91,"City":"Qujing","Latitude":25.5102,"Longitude":103.8029,"Country":"China"},{"Id":92,"City":"Jieyang","Latitude":23.5533,"Longitude":116.3649,"Country":"China"},{"Id":93,"City":"Singapore","Latitude":1.3,"Longitude":103.8,"Country":"Singapore"},{"Id":94,"City":"Prayagraj","Latitude":25.4358,"Longitude":81.8464,"Country":"India"},{"Id":95,"City":"Liaocheng","Latitude":36.45,"Longitude":115.9833,"Country":"China"},{"Id":96,"City":"Dalian","Latitude":38.9,"Longitude":121.6,"Country":"China"},{"Id":97,"City":"Yulin","Latitude":22.6293,"Longitude":110.1507,"Country":"China"},{"Id":98,"City":"Changde","Latitude":29.0397,"Longitude":111.6839,"Country":"China"},{"Id":99,"City":"Qingdao","Latitude":36.1167,"Longitude":120.4,"Country":"China"},{"Id":100,"City":"Douala","Latitude":4.05,"Longitude":9.7,"Country":"Cameroon"},{"Id":101,"City":"Miami","Latitude":25.784,"Longitude":-80.2101,"Country":"United States"},{"Id":102,"City":"Nangandao","Latitude":35.2992,"Longitude":113.8851,"Country":"China"},{"Id":103,"City":"Pudong","Latitude":31.2231,"Longitude":121.5397,"Country":"China"},{"Id":104,"City":"Xiangyang","Latitude":32.0654,"Longitude":112.1531,"Country":"China"},{"Id":105,"City":"Dallas","Latitude":32.7935,"Longitude":-96.7667,"Country":"United States"},{"Id":106,"City":"Houston","Latitude":29.786,"Longitude":-95.3885,"Country":"United States"},{"Id":107,"City":"Zhengzhou","Latitude":34.7492,"Longitude":113.6605,"Country":"China"},{"Id":108,"City":"Lu\u2019an","Latitude":31.7542,"Longitude":116.5078,"Country":"China"},{"Id":109,"City":"Dezhou","Latitude":37.4513,"Longitude":116.3105,"Country":"China"},{"Id":110,"City":"Jinan","Latitude":36.6667,"Longitude":116.9833,"Country":"China"},{"Id":111,"City":"Giza","Latitude":29.987,"Longitude":31.2118,"Country":"Egypt"},{"Id":112,"City":"Zhaotong","Latitude":27.3328,"Longitude":103.7144,"Country":"China"},{"Id":113,"City":"Yichun","Latitude":27.8041,"Longitude":114.383,"Country":"China"},{"Id":114,"City":"Nairobi","Latitude":-1.2864,"Longitude":36.8172,"Country":"Kenya"},{"Id":115,"City":"Guadalajara","Latitude":20.6767,"Longitude":-103.3475,"Country":"Mexico"},{"Id":116,"City":"Philadelphia","Latitude":40.0077,"Longitude":-75.1339,"Country":"United States"},{"Id":117,"City":"Ankara","Latitude":39.93,"Longitude":32.85,"Country":"Turkey"},{"Id":118,"City":"Tai\u2019an","Latitude":36.2001,"Longitude":117.0809,"Country":"China"},{"Id":119,"City":"Dazhou","Latitude":31.2152,"Longitude":107.4947,"Country":"China"},{"Id":120,"City":"Langfang","Latitude":39.5196,"Longitude":116.7006,"Country":"China"},{"Id":121,"City":"Yongzhou","Latitude":26.4515,"Longitude":111.5953,"Country":"China"},{"Id":122,"City":"Toronto","Latitude":43.7417,"Longitude":-79.3733,"Country":"Canada"},{"Id":123,"City":"Suihua","Latitude":46.6384,"Longitude":126.9808,"Country":"China"},{"Id":124,"City":"Saint Petersburg","Latitude":59.95,"Longitude":30.3167,"Country":"Russia"},{"Id":125,"City":"Qiqihar","Latitude":47.3398,"Longitude":123.9512,"Country":"China"},{"Id":126,"City":"Suzhou","Latitude":33.6333,"Longitude":116.9683,"Country":"China"},{"Id":127,"City":"Monterrey","Latitude":25.6667,"Longitude":-100.3,"Country":"Mexico"},{"Id":128,"City":"Belo Horizonte","Latitude":-19.9167,"Longitude":-43.9333,"Country":"Brazil"},{"Id":129,"City":"Weinan","Latitude":34.4996,"Longitude":109.4684,"Country":"China"},{"Id":130,"City":"Rangoon","Latitude":16.795,"Longitude":96.16,"Country":"Myanmar"},{"Id":131,"City":"Zhangzhou","Latitude":24.5093,"Longitude":117.6612,"Country":"China"},{"Id":132,"City":"Yuncheng","Latitude":35.0304,"Longitude":110.998,"Country":"China"},{"Id":133,"City":"Xianyang","Latitude":34.35,"Longitude":108.7167,"Country":"China"},{"Id":134,"City":"Guilin","Latitude":25.2819,"Longitude":110.2864,"Country":"China"},{"Id":135,"City":"Atlanta","Latitude":33.7628,"Longitude":-84.422,"Country":"United States"},{"Id":136,"City":"Taizhou","Latitude":32.4831,"Longitude":119.9,"Country":"China"},{"Id":137,"City":"Kashan","Latitude":33.9833,"Longitude":51.4333,"Country":"Iran"},{"Id":138,"City":"Bozhou","Latitude":33.8626,"Longitude":115.7742,"Country":"China"},{"Id":139,"City":"Abidjan","Latitude":5.3167,"Longitude":-4.0333,"Country":"C\u00F4te d\u0027Ivoire"},{"Id":140,"City":"Suqian","Latitude":33.9331,"Longitude":118.2831,"Country":"China"},{"Id":141,"City":"Huaihua","Latitude":27.5494,"Longitude":109.9592,"Country":"China"},{"Id":142,"City":"Ji\u2019an","Latitude":27.1172,"Longitude":114.9793,"Country":"China"},{"Id":143,"City":"Xiaoganzhan","Latitude":30.9273,"Longitude":113.911,"Country":"China"},{"Id":144,"City":"Pingdingshan","Latitude":33.735,"Longitude":113.2999,"Country":"China"},{"Id":145,"City":"Jiujiang","Latitude":29.7048,"Longitude":116.0021,"Country":"China"},{"Id":146,"City":"Alexandria","Latitude":31.1975,"Longitude":29.8925,"Country":"Egypt"},{"Id":147,"City":"Mianyang","Latitude":31.4669,"Longitude":104.7385,"Country":"China"},{"Id":148,"City":"Sydney","Latitude":-33.8678,"Longitude":151.21,"Country":"Australia"},{"Id":149,"City":"Huanglongsi","Latitude":34.795,"Longitude":114.345,"Country":"China"},{"Id":150,"City":"Washington","Latitude":38.9047,"Longitude":-77.0163,"Country":"United States"},{"Id":151,"City":"Barcelona","Latitude":41.3825,"Longitude":2.1769,"Country":"Spain"},{"Id":152,"City":"Changsha","Latitude":28.1987,"Longitude":112.9709,"Country":"China"},{"Id":153,"City":"Chenzhou","Latitude":25.7989,"Longitude":113.0267,"Country":"China"},{"Id":154,"City":"Anqing","Latitude":30.5,"Longitude":117.0333,"Country":"China"},{"Id":155,"City":"Jiangmen","Latitude":22.5833,"Longitude":113.0833,"Country":"China"},{"Id":156,"City":"Xinpu","Latitude":34.5906,"Longitude":119.1801,"Country":"China"},{"Id":157,"City":"Yibin","Latitude":28.7596,"Longitude":104.64,"Country":"China"},{"Id":158,"City":"Yangzhou","Latitude":32.3912,"Longitude":119.4363,"Country":"China"},{"Id":159,"City":"Melbourne","Latitude":-37.8142,"Longitude":144.9631,"Country":"Australia"},{"Id":160,"City":"Berlin","Latitude":52.52,"Longitude":13.405,"Country":"Germany"},{"Id":161,"City":"Hengshui","Latitude":37.7348,"Longitude":115.686,"Country":"China"},{"Id":162,"City":"Timb\u00EDo","Latitude":2.3445,"Longitude":-76.6839,"Country":"Colombia"},{"Id":163,"City":"Kunming","Latitude":25.0433,"Longitude":102.7061,"Country":"China"},{"Id":164,"City":"Yiyang","Latitude":28.5833,"Longitude":112.3333,"Country":"China"},{"Id":165,"City":"Guigang","Latitude":23.0961,"Longitude":109.6092,"Country":"China"},{"Id":166,"City":"Changchun","Latitude":43.9,"Longitude":125.2,"Country":"China"},{"Id":167,"City":"Jiangguanchi","Latitude":34.0244,"Longitude":113.8201,"Country":"China"},{"Id":168,"City":"Casablanca","Latitude":33.5333,"Longitude":-7.5833,"Country":"Morocco"},{"Id":169,"City":"Meizhou","Latitude":24.2998,"Longitude":116.1191,"Country":"China"},{"Id":170,"City":"Zhangjiakou","Latitude":40.8108,"Longitude":114.8811,"Country":"China"},{"Id":171,"City":"Chifeng","Latitude":42.2663,"Longitude":118.9223,"Country":"China"},{"Id":172,"City":"\u00DCr\u00FCmqi","Latitude":43.8225,"Longitude":87.6125,"Country":"China"},{"Id":173,"City":"Suzhou","Latitude":31.3,"Longitude":120.6194,"Country":"China"},{"Id":174,"City":"Izmir","Latitude":38.42,"Longitude":27.14,"Country":"Turkey"},{"Id":175,"City":"Linfen","Latitude":36.0812,"Longitude":111.5087,"Country":"China"},{"Id":176,"City":"Shantou","Latitude":23.3735,"Longitude":116.6941,"Country":"China"},{"Id":177,"City":"Kabul","Latitude":34.5253,"Longitude":69.1783,"Country":"Afghanistan"},{"Id":178,"City":"Mogadishu","Latitude":2.0392,"Longitude":45.3419,"Country":"Somalia"},{"Id":179,"City":"Luzhou","Latitude":28.8918,"Longitude":105.4409,"Country":"China"},{"Id":180,"City":"Hefei","Latitude":31.8639,"Longitude":117.2808,"Country":"China"},{"Id":181,"City":"Boston","Latitude":42.3188,"Longitude":-71.0852,"Country":"United States"},{"Id":182,"City":"Liuzhou","Latitude":24.3264,"Longitude":109.4281,"Country":"China"},{"Id":183,"City":"Zhaoqing","Latitude":23.05,"Longitude":112.4667,"Country":"China"},{"Id":184,"City":"Xiaoxita","Latitude":30.7083,"Longitude":111.2803,"Country":"China"},{"Id":185,"City":"Shijiazhuang","Latitude":38.0422,"Longitude":114.5086,"Country":"China"},{"Id":186,"City":"Ningbo","Latitude":29.875,"Longitude":121.5492,"Country":"China"},{"Id":187,"City":"Fuzhou","Latitude":27.9814,"Longitude":116.3577,"Country":"China"},{"Id":188,"City":"Phoenix","Latitude":33.5722,"Longitude":-112.0892,"Country":"United States"},{"Id":189,"City":"Zhuzhou","Latitude":27.8407,"Longitude":113.1469,"Country":"China"},{"Id":190,"City":"Amman","Latitude":31.9497,"Longitude":35.9328,"Country":"Jordan"},{"Id":191,"City":"Chuzhou","Latitude":32.3062,"Longitude":118.3115,"Country":"China"},{"Id":192,"City":"Jeddah","Latitude":21.5433,"Longitude":39.1728,"Country":"Saudi Arabia"},{"Id":193,"City":"Qingyuan","Latitude":23.6842,"Longitude":113.0507,"Country":"China"},{"Id":194,"City":"Loudi","Latitude":27.7378,"Longitude":111.9974,"Country":"China"},{"Id":195,"City":"Binzhou","Latitude":37.3806,"Longitude":118.0125,"Country":"China"},{"Id":196,"City":"Deyang","Latitude":31.1289,"Longitude":104.395,"Country":"China"},{"Id":197,"City":"Taiyuan","Latitude":37.8733,"Longitude":112.5425,"Country":"China"},{"Id":198,"City":"Kano","Latitude":12,"Longitude":8.5167,"Country":"Nigeria"},{"Id":199,"City":"Wuhu","Latitude":31.334,"Longitude":118.3622,"Country":"China"},{"Id":200,"City":"Nanning","Latitude":22.8192,"Longitude":108.315,"Country":"China"},{"Id":201,"City":"Harbin","Latitude":45.75,"Longitude":126.6333,"Country":"China"},{"Id":202,"City":"Abuja","Latitude":9.0667,"Longitude":7.4833,"Country":"Nigeria"},{"Id":203,"City":"Yokohama","Latitude":35.4442,"Longitude":139.6381,"Country":"Japan"},{"Id":204,"City":"Baojishi","Latitude":34.3609,"Longitude":107.1751,"Country":"China"},{"Id":205,"City":"Zaozhuang","Latitude":34.8667,"Longitude":117.55,"Country":"China"},{"Id":206,"City":"Xiamen","Latitude":24.4797,"Longitude":118.0819,"Country":"China"},{"Id":207,"City":"Neijiang","Latitude":29.5872,"Longitude":105.0635,"Country":"China"},{"Id":208,"City":"Fuzhou","Latitude":26.0769,"Longitude":119.2917,"Country":"China"},{"Id":209,"City":"Baicheng","Latitude":23.901,"Longitude":106.6194,"Country":"China"},{"Id":210,"City":"Anshan","Latitude":41.1066,"Longitude":122.9895,"Country":"China"},{"Id":211,"City":"Medan","Latitude":3.5894,"Longitude":98.6739,"Country":"Indonesia"},{"Id":212,"City":"Yulinshi","Latitude":38.2655,"Longitude":109.7388,"Country":"China"},{"Id":213,"City":"Wenzhou","Latitude":27.9991,"Longitude":120.6561,"Country":"China"},{"Id":214,"City":"Changzhou","Latitude":31.8122,"Longitude":119.9692,"Country":"China"},{"Id":215,"City":"Puyang","Latitude":35.7639,"Longitude":115.03,"Country":"China"},{"Id":216,"City":"Jiaozuo","Latitude":35.229,"Longitude":113.2304,"Country":"China"},{"Id":217,"City":"Nanchang","Latitude":28.6842,"Longitude":115.8872,"Country":"China"},{"Id":218,"City":"Ibadan","Latitude":7.3964,"Longitude":3.9167,"Country":"Nigeria"},{"Id":219,"City":"Hechi","Latitude":24.6928,"Longitude":108.085,"Country":"China"},{"Id":220,"City":"Detroit","Latitude":42.3834,"Longitude":-83.1024,"Country":"United States"},{"Id":221,"City":"Montr\u00E9al","Latitude":45.5089,"Longitude":-73.5617,"Country":"Canada"},{"Id":222,"City":"Busan","Latitude":35.18,"Longitude":129.075,"Country":"South Korea"},{"Id":223,"City":"Hohhot","Latitude":40.8151,"Longitude":111.6629,"Country":"China"},{"Id":224,"City":"Seattle","Latitude":47.6211,"Longitude":-122.3244,"Country":"United States"},{"Id":225,"City":"Algiers","Latitude":36.7539,"Longitude":3.0589,"Country":"Algeria"},{"Id":226,"City":"Hanzhong","Latitude":33.0794,"Longitude":107.026,"Country":"China"},{"Id":227,"City":"Tangshan","Latitude":39.6292,"Longitude":118.1742,"Country":"China"},{"Id":228,"City":"Shiyan","Latitude":32.6351,"Longitude":110.7755,"Country":"China"},{"Id":229,"City":"Lucknow","Latitude":26.85,"Longitude":80.95,"Country":"India"},{"Id":230,"City":"Siping","Latitude":43.1715,"Longitude":124.3644,"Country":"China"},{"Id":231,"City":"Mashhad","Latitude":36.3,"Longitude":59.6,"Country":"Iran"},{"Id":232,"City":"Boankra","Latitude":6.6944,"Longitude":-1.4028,"Country":"Ghana"},{"Id":233,"City":"Changzhi","Latitude":36.1953,"Longitude":113.097,"Country":"China"},{"Id":234,"City":"Dubai","Latitude":25.2631,"Longitude":55.2972,"Country":"United Arab Emirates"},{"Id":235,"City":"Qinzhou","Latitude":21.95,"Longitude":108.6167,"Country":"China"},{"Id":236,"City":"Guiyang","Latitude":26.5794,"Longitude":106.7078,"Country":"China"},{"Id":237,"City":"Bengbu","Latitude":32.9354,"Longitude":117.3531,"Country":"China"},{"Id":238,"City":"San Francisco","Latitude":37.7558,"Longitude":-122.4449,"Country":"United States"},{"Id":239,"City":"Bazhou","Latitude":31.8576,"Longitude":106.7559,"Country":"China"},{"Id":240,"City":"Qincheng","Latitude":34.5809,"Longitude":105.7311,"Country":"China"},{"Id":241,"City":"Suining","Latitude":30.5098,"Longitude":105.5737,"Country":"China"},{"Id":242,"City":"Wuxi","Latitude":31.5667,"Longitude":120.2833,"Country":"China"},{"Id":243,"City":"Leshan","Latitude":29.5854,"Longitude":103.7575,"Country":"China"},{"Id":244,"City":"Putian","Latitude":25.4394,"Longitude":119.0103,"Country":"China"},{"Id":245,"City":"Zhenjiang","Latitude":32.2109,"Longitude":119.4551,"Country":"China"},{"Id":246,"City":"Faisalabad","Latitude":31.4167,"Longitude":73.0911,"Country":"Pakistan"},{"Id":247,"City":"Guang\u2019an","Latitude":30.4673,"Longitude":106.6336,"Country":"China"},{"Id":248,"City":"Tongren","Latitude":27.7233,"Longitude":109.1885,"Country":"China"},{"Id":249,"City":"Santa Cruz","Latitude":-17.7892,"Longitude":-63.1975,"Country":"Bolivia"},{"Id":250,"City":"Qinhuangdao","Latitude":39.9398,"Longitude":119.5881,"Country":"China"},{"Id":251,"City":"Tongliao","Latitude":43.6172,"Longitude":122.264,"Country":"China"},{"Id":252,"City":"Jinzhou","Latitude":41.1144,"Longitude":121.1292,"Country":"China"},{"Id":253,"City":"Heyuan","Latitude":23.7503,"Longitude":114.6923,"Country":"China"},{"Id":254,"City":"San Diego","Latitude":32.8313,"Longitude":-117.1222,"Country":"United States"},{"Id":255,"City":"Jaipur","Latitude":26.9,"Longitude":75.8,"Country":"India"},{"Id":256,"City":"Xinzhou","Latitude":38.4178,"Longitude":112.7233,"Country":"China"},{"Id":257,"City":"Lanzhou","Latitude":36.0617,"Longitude":103.8318,"Country":"China"},{"Id":258,"City":"Wuzhou","Latitude":23.4833,"Longitude":111.3167,"Country":"China"},{"Id":259,"City":"Athens","Latitude":37.9842,"Longitude":23.7281,"Country":"Greece"},{"Id":260,"City":"Addis Ababa","Latitude":9.03,"Longitude":38.74,"Country":"Ethiopia"},{"Id":261,"City":"Chaoyang","Latitude":41.5757,"Longitude":120.4486,"Country":"China"},{"Id":262,"City":"Bras\u00EDlia","Latitude":-15.7939,"Longitude":-47.8828,"Country":"Brazil"},{"Id":263,"City":"Taichung","Latitude":24.1439,"Longitude":120.6794,"Country":"Taiwan"},{"Id":264,"City":"Kuwait City","Latitude":29.3697,"Longitude":47.9783,"Country":"Kuwait"},{"Id":265,"City":"Budapest","Latitude":47.4925,"Longitude":19.0514,"Country":"Hungary"},{"Id":266,"City":"Shaoguan","Latitude":24.8011,"Longitude":113.5927,"Country":"China"},{"Id":267,"City":"Shanwei","Latitude":22.7664,"Longitude":115.3331,"Country":"China"},{"Id":268,"City":"Quezon City","Latitude":14.63,"Longitude":121.03,"Country":"Philippines"},{"Id":269,"City":"Rizhao","Latitude":35.4164,"Longitude":119.4331,"Country":"China"},{"Id":270,"City":"Kyiv","Latitude":50.45,"Longitude":30.5233,"Country":"Ukraine"},{"Id":271,"City":"Sanaa","Latitude":15.3483,"Longitude":44.2064,"Country":"Yemen"},{"Id":272,"City":"Meishan","Latitude":30.0575,"Longitude":103.8381,"Country":"China"},{"Id":273,"City":"Incheon","Latitude":37.4833,"Longitude":126.6333,"Country":"South Korea"},{"Id":274,"City":"Guatemala City","Latitude":14.6099,"Longitude":-90.5252,"Country":"Guatemala"},{"Id":275,"City":"Birmingham","Latitude":52.48,"Longitude":-1.9025,"Country":"United Kingdom"},{"Id":276,"City":"Zhongshan","Latitude":22.5333,"Longitude":113.35,"Country":"China"},{"Id":277,"City":"Ningde","Latitude":26.6617,"Longitude":119.5228,"Country":"China"},{"Id":278,"City":"Weihai","Latitude":37.5,"Longitude":122.1,"Country":"China"},{"Id":279,"City":"Daqing","Latitude":46.5979,"Longitude":125.008,"Country":"China"},{"Id":280,"City":"Bursa","Latitude":40.1833,"Longitude":29.05,"Country":"Turkey"},{"Id":281,"City":"Salvador","Latitude":-12.9747,"Longitude":-38.4767,"Country":"Brazil"},{"Id":282,"City":"Rome","Latitude":41.8931,"Longitude":12.4828,"Country":"Italy"},{"Id":283,"City":"Haikou","Latitude":20.02,"Longitude":110.32,"Country":"China"},{"Id":284,"City":"La Paz","Latitude":-16.5,"Longitude":-68.15,"Country":"Bolivia"},{"Id":285,"City":"Xiangtan","Latitude":27.8431,"Longitude":112.9228,"Country":"China"},{"Id":286,"City":"Pyongyang","Latitude":39.0194,"Longitude":125.7381,"Country":"North Korea"},{"Id":287,"City":"Minneapolis","Latitude":44.9635,"Longitude":-93.2678,"Country":"United States"},{"Id":288,"City":"Omdurman","Latitude":15.65,"Longitude":32.4833,"Country":"Sudan"},{"Id":289,"City":"Malang","Latitude":-7.98,"Longitude":112.62,"Country":"Indonesia"},{"Id":290,"City":"Mudanjiang","Latitude":44.5861,"Longitude":129.5997,"Country":"China"},{"Id":291,"City":"Stuttgart","Latitude":48.7775,"Longitude":9.18,"Country":"Germany"},{"Id":292,"City":"Brooklyn","Latitude":40.6501,"Longitude":-73.9496,"Country":"United States"},{"Id":293,"City":"Kaohsiung","Latitude":22.615,"Longitude":120.2975,"Country":"Taiwan"},{"Id":294,"City":"Guayaquil","Latitude":-2.19,"Longitude":-79.8875,"Country":"Ecuador"},{"Id":295,"City":"Lisbon","Latitude":38.7253,"Longitude":-9.15,"Country":"Portugal"},{"Id":296,"City":"Longyan","Latitude":25.0881,"Longitude":117.0244,"Country":"China"},{"Id":297,"City":"Tieling","Latitude":42.2841,"Longitude":123.8365,"Country":"China"},{"Id":298,"City":"Manchester","Latitude":53.4794,"Longitude":-2.2453,"Country":"United Kingdom"},{"Id":299,"City":"Baotou","Latitude":40.6562,"Longitude":109.8345,"Country":"China"},{"Id":300,"City":"Handan","Latitude":36.6116,"Longitude":114.4894,"Country":"China"},{"Id":301,"City":"Cawnpore","Latitude":26.4499,"Longitude":80.3319,"Country":"India"},{"Id":302,"City":"Dingxi","Latitude":35.5806,"Longitude":104.6263,"Country":"China"},{"Id":303,"City":"Nanping","Latitude":26.6448,"Longitude":118.1728,"Country":"China"},{"Id":304,"City":"Tampa","Latitude":27.9945,"Longitude":-82.4447,"Country":"United States"},{"Id":305,"City":"Zigong","Latitude":29.3498,"Longitude":104.7645,"Country":"China"},{"Id":306,"City":"Maracaibo","Latitude":10.6333,"Longitude":-71.6333,"Country":"Venezuela"},{"Id":307,"City":"Chaozhou","Latitude":23.67,"Longitude":116.63,"Country":"China"},{"Id":308,"City":"Mbuji-Mayi","Latitude":-6.15,"Longitude":23.6,"Country":"Congo (Kinshasa)"},{"Id":309,"City":"Denver","Latitude":39.762,"Longitude":-104.8758,"Country":"United States"},{"Id":310,"City":"Gulou","Latitude":26.0865,"Longitude":119.298,"Country":"China"},{"Id":311,"City":"Weifang","Latitude":36.7167,"Longitude":119.1,"Country":"China"},{"Id":312,"City":"Huai\u2019an","Latitude":33.5058,"Longitude":119.1392,"Country":"China"},{"Id":313,"City":"Zibo","Latitude":36.7831,"Longitude":118.0497,"Country":"China"},{"Id":314,"City":"Ankang","Latitude":32.6877,"Longitude":109.0235,"Country":"China"},{"Id":315,"City":"Baoshan","Latitude":25.1211,"Longitude":99.169,"Country":"China"},{"Id":316,"City":"Antananarivo","Latitude":-18.9333,"Longitude":47.5167,"Country":"Madagascar"},{"Id":317,"City":"Huludao","Latitude":40.7094,"Longitude":120.8378,"Country":"China"},{"Id":318,"City":"Munich","Latitude":48.1375,"Longitude":11.575,"Country":"Germany"},{"Id":319,"City":"Yanjiang","Latitude":30.1256,"Longitude":104.6397,"Country":"China"},{"Id":320,"City":"Santo Domingo","Latitude":18.4764,"Longitude":-69.8933,"Country":"Dominican Republic"},{"Id":321,"City":"Sanming","Latitude":26.2658,"Longitude":117.6302,"Country":"China"},{"Id":322,"City":"Tashkent","Latitude":41.3111,"Longitude":69.2797,"Country":"Uzbekistan"},{"Id":323,"City":"Longba","Latitude":33.535,"Longitude":105.349,"Country":"China"},{"Id":324,"City":"Yangjiang","Latitude":21.8556,"Longitude":111.9627,"Country":"China"},{"Id":325,"City":"Jiamusi","Latitude":46.8081,"Longitude":130.3653,"Country":"China"},{"Id":326,"City":"Luohe","Latitude":33.583,"Longitude":114.0109,"Country":"China"},{"Id":327,"City":"Lincang","Latitude":23.8864,"Longitude":100.0871,"Country":"China"},{"Id":328,"City":"Medell\u00EDn","Latitude":6.2308,"Longitude":-75.5906,"Country":"Colombia"},{"Id":329,"City":"Xuanzhou","Latitude":30.9475,"Longitude":118.7518,"Country":"China"},{"Id":330,"City":"Yunfu","Latitude":22.9242,"Longitude":112.0353,"Country":"China"},{"Id":331,"City":"Shaoxing","Latitude":30,"Longitude":120.5833,"Country":"China"},{"Id":332,"City":"Yantai","Latitude":37.3997,"Longitude":121.2664,"Country":"China"},{"Id":333,"City":"Huizhou","Latitude":23.1115,"Longitude":114.4152,"Country":"China"},{"Id":334,"City":"Lishui","Latitude":28.45,"Longitude":119.9167,"Country":"China"},{"Id":335,"City":"Mirzapur","Latitude":25.146,"Longitude":82.569,"Country":"India"},{"Id":336,"City":"Hamburg","Latitude":53.55,"Longitude":10,"Country":"Germany"},{"Id":337,"City":"Guangyuan","Latitude":32.4353,"Longitude":105.8398,"Country":"China"},{"Id":338,"City":"Cali","Latitude":3.4206,"Longitude":-76.5222,"Country":"Colombia"},{"Id":339,"City":"Lusaka","Latitude":-15.4167,"Longitude":28.2833,"Country":"Zambia"},{"Id":340,"City":"Huangshi","Latitude":30.2018,"Longitude":115.0326,"Country":"China"},{"Id":341,"City":"Xining","Latitude":36.6239,"Longitude":101.7787,"Country":"China"},{"Id":342,"City":"Ouagadougou","Latitude":12.3686,"Longitude":-1.5275,"Country":"Burkina Faso"},{"Id":343,"City":"Daegu","Latitude":35.8717,"Longitude":128.6017,"Country":"South Korea"},{"Id":344,"City":"Fortaleza","Latitude":-3.7275,"Longitude":-38.5275,"Country":"Brazil"},{"Id":345,"City":"Yaound\u00E9","Latitude":3.8667,"Longitude":11.5167,"Country":"Cameroon"},{"Id":346,"City":"Jilin","Latitude":43.8519,"Longitude":126.5481,"Country":"China"},{"Id":347,"City":"Dandong","Latitude":40.1167,"Longitude":124.3833,"Country":"China"},{"Id":348,"City":"Zhuhai","Latitude":22.2769,"Longitude":113.5678,"Country":"China"},{"Id":349,"City":"Lianshan","Latitude":40.7523,"Longitude":120.828,"Country":"China"},{"Id":350,"City":"Yingkou","Latitude":40.6653,"Longitude":122.2297,"Country":"China"},{"Id":351,"City":"Antalya","Latitude":36.8874,"Longitude":30.7075,"Country":"Turkey"},{"Id":352,"City":"Nagpur","Latitude":21.1497,"Longitude":79.0806,"Country":"India"},{"Id":353,"City":"Queens","Latitude":40.7498,"Longitude":-73.7976,"Country":"United States"},{"Id":354,"City":"Accra","Latitude":5.55,"Longitude":-0.2,"Country":"Ghana"},{"Id":355,"City":"Bekasi","Latitude":-6.2349,"Longitude":106.9923,"Country":"Indonesia"},{"Id":356,"City":"Ghaziabad","Latitude":28.67,"Longitude":77.42,"Country":"India"},{"Id":357,"City":"Yuxi","Latitude":24.3495,"Longitude":102.5432,"Country":"China"},{"Id":358,"City":"Luoyang","Latitude":34.6587,"Longitude":112.4245,"Country":"China"},{"Id":359,"City":"Brisbane","Latitude":-27.4678,"Longitude":153.0281,"Country":"Australia"},{"Id":360,"City":"Anshun","Latitude":26.2456,"Longitude":105.934,"Country":"China"},{"Id":361,"City":"Depok","Latitude":-6.394,"Longitude":106.8225,"Country":"Indonesia"},{"Id":362,"City":"Shangzhou","Latitude":33.868,"Longitude":109.9244,"Country":"China"},{"Id":363,"City":"Huainan","Latitude":32.4831,"Longitude":117.0164,"Country":"China"},{"Id":364,"City":"Colombo","Latitude":6.9344,"Longitude":79.8428,"Country":"Sri Lanka"},{"Id":365,"City":"Kuaidamao","Latitude":41.7302,"Longitude":125.9471,"Country":"China"},{"Id":366,"City":"Baku","Latitude":40.3667,"Longitude":49.8352,"Country":"Azerbaijan"},{"Id":367,"City":"Fukuoka","Latitude":33.5833,"Longitude":130.4,"Country":"Japan"},{"Id":368,"City":"Yan\u2019an","Latitude":36.5952,"Longitude":109.4863,"Country":"China"},{"Id":369,"City":"Jincheng","Latitude":35.4906,"Longitude":112.8483,"Country":"China"},{"Id":370,"City":"Vancouver","Latitude":49.25,"Longitude":-123.1,"Country":"Canada"},{"Id":371,"City":"Nantong","Latitude":31.9829,"Longitude":120.8873,"Country":"China"},{"Id":372,"City":"Tangerang","Latitude":-6.1783,"Longitude":106.6319,"Country":"Indonesia"},{"Id":373,"City":"Caracas","Latitude":10.4806,"Longitude":-66.9036,"Country":"Venezuela"},{"Id":374,"City":"Sanmenxia","Latitude":34.7736,"Longitude":111.195,"Country":"China"},{"Id":375,"City":"Laibin","Latitude":23.7333,"Longitude":109.2333,"Country":"China"},{"Id":376,"City":"Konya","Latitude":37.8667,"Longitude":32.4833,"Country":"Turkey"},{"Id":377,"City":"Manaus","Latitude":-3.1,"Longitude":-60.0167,"Country":"Brazil"},{"Id":378,"City":"Esfahan","Latitude":32.6447,"Longitude":51.6675,"Country":"Iran"},{"Id":379,"City":"Qinbaling","Latitude":35.7278,"Longitude":107.64,"Country":"China"},{"Id":380,"City":"Baltimore","Latitude":39.3051,"Longitude":-76.6144,"Country":"United States"},{"Id":381,"City":"Ma\u2019anshan","Latitude":31.6858,"Longitude":118.5101,"Country":"China"},{"Id":382,"City":"Shengli","Latitude":37.45,"Longitude":118.4667,"Country":"China"},{"Id":383,"City":"Gaoping","Latitude":30.7824,"Longitude":106.1281,"Country":"China"},{"Id":384,"City":"Taizhou","Latitude":28.6583,"Longitude":121.4221,"Country":"China"},{"Id":385,"City":"Harare","Latitude":-17.8292,"Longitude":31.0522,"Country":"Zimbabwe"},{"Id":386,"City":"Kowloon","Latitude":22.3167,"Longitude":114.1833,"Country":"Hong Kong"},{"Id":387,"City":"Las Vegas","Latitude":36.2333,"Longitude":-115.2654,"Country":"United States"},{"Id":388,"City":"Havana","Latitude":23.1367,"Longitude":-82.3589,"Country":"Cuba"},{"Id":389,"City":"Perth","Latitude":-31.9559,"Longitude":115.8606,"Country":"Australia"},{"Id":390,"City":"Phnom Penh","Latitude":11.5694,"Longitude":104.9211,"Country":"Cambodia"},{"Id":391,"City":"Puning","Latitude":23.2993,"Longitude":116.1586,"Country":"China"},{"Id":392,"City":"Huaibei","Latitude":33.9562,"Longitude":116.789,"Country":"China"},{"Id":393,"City":"Qingyang","Latitude":24.8141,"Longitude":118.5792,"Country":"China"},{"Id":394,"City":"Haiphong","Latitude":20.8651,"Longitude":106.6838,"Country":"Vietnam"},{"Id":395,"City":"Chongzuo","Latitude":22.4167,"Longitude":107.3667,"Country":"China"},{"Id":396,"City":"Rawalpindi","Latitude":33.6,"Longitude":73.0333,"Country":"Pakistan"},{"Id":397,"City":"Yushan","Latitude":31.3867,"Longitude":120.9766,"Country":"China"},{"Id":398,"City":"St. Louis","Latitude":38.6359,"Longitude":-90.2451,"Country":"United States"},{"Id":399,"City":"Kumasi","Latitude":6.6667,"Longitude":-1.6167,"Country":"Ghana"},{"Id":400,"City":"Vadodara","Latitude":22.3,"Longitude":73.2,"Country":"India"},{"Id":401,"City":"Hezhou","Latitude":24.4164,"Longitude":111.5478,"Country":"China"},{"Id":402,"City":"Pingliang","Latitude":35.5412,"Longitude":106.6819,"Country":"China"},{"Id":403,"City":"Portland","Latitude":45.5371,"Longitude":-122.65,"Country":"United States"},{"Id":404,"City":"Vishakhapatnam","Latitude":17.7042,"Longitude":83.2978,"Country":"India"},{"Id":405,"City":"Gujranwala","Latitude":32.1567,"Longitude":74.19,"Country":"Pakistan"},{"Id":406,"City":"Baicheng","Latitude":45.6148,"Longitude":122.832,"Country":"China"},{"Id":407,"City":"Gaziantep","Latitude":37.0628,"Longitude":37.3792,"Country":"Turkey"},{"Id":408,"City":"Fushun","Latitude":41.8708,"Longitude":123.8917,"Country":"China"},{"Id":409,"City":"Riverside","Latitude":33.9381,"Longitude":-117.3949,"Country":"United States"},{"Id":410,"City":"Bamako","Latitude":12.6458,"Longitude":-7.9922,"Country":"Mali"},{"Id":411,"City":"Quito","Latitude":-0.22,"Longitude":-78.5125,"Country":"Ecuador"},{"Id":412,"City":"Minsk","Latitude":53.9,"Longitude":27.5667,"Country":"Belarus"},{"Id":413,"City":"Tijuana","Latitude":32.525,"Longitude":-117.0333,"Country":"Mexico"},{"Id":414,"City":"Bamenda","Latitude":5.9614,"Longitude":10.1517,"Country":"Cameroon"},{"Id":415,"City":"Boosaaso","Latitude":11.2886,"Longitude":49.1819,"Country":"Somalia"},{"Id":416,"City":"Indore","Latitude":22.7167,"Longitude":75.8472,"Country":"India"},{"Id":417,"City":"Sanliurfa","Latitude":37.1583,"Longitude":38.7917,"Country":"Turkey"},{"Id":418,"City":"Vienna","Latitude":48.2083,"Longitude":16.3725,"Country":"Austria"},{"Id":419,"City":"Karaj","Latitude":35.8272,"Longitude":50.9489,"Country":"Iran"},{"Id":420,"City":"Kananga","Latitude":-5.897,"Longitude":22.4488,"Country":"Congo (Kinshasa)"},{"Id":421,"City":"Peshawar","Latitude":34.0144,"Longitude":71.5675,"Country":"Pakistan"},{"Id":422,"City":"Sapporo","Latitude":43.0667,"Longitude":141.35,"Country":"Japan"},{"Id":423,"City":"Ecatepec","Latitude":19.6097,"Longitude":-99.06,"Country":"Mexico"},{"Id":424,"City":"Pingxiang","Latitude":27.6333,"Longitude":113.85,"Country":"China"},{"Id":425,"City":"Orlando","Latitude":28.4773,"Longitude":-81.337,"Country":"United States"},{"Id":426,"City":"Aleppo","Latitude":36.2,"Longitude":37.16,"Country":"Syria"},{"Id":427,"City":"Sacramento","Latitude":38.5677,"Longitude":-121.4685,"Country":"United States"},{"Id":428,"City":"Almaty","Latitude":43.2775,"Longitude":76.8958,"Country":"Kazakhstan"},{"Id":429,"City":"San Juan","Latitude":18.3985,"Longitude":-66.061,"Country":"Puerto Rico"},{"Id":430,"City":"San Antonio","Latitude":29.4632,"Longitude":-98.5238,"Country":"United States"},{"Id":431,"City":"Yinchuan","Latitude":38.4795,"Longitude":106.2254,"Country":"China"},{"Id":432,"City":"Thane","Latitude":19.1972,"Longitude":72.9722,"Country":"India"},{"Id":433,"City":"Santos","Latitude":-23.9369,"Longitude":-46.325,"Country":"Brazil"},{"Id":434,"City":"Blantyre","Latitude":-15.7861,"Longitude":35.0058,"Country":"Malawi"},{"Id":435,"City":"Bucharest","Latitude":44.4325,"Longitude":26.1039,"Country":"Romania"},{"Id":436,"City":"Curitiba","Latitude":-25.4297,"Longitude":-49.2711,"Country":"Brazil"},{"Id":437,"City":"Multan","Latitude":30.1978,"Longitude":71.4697,"Country":"Pakistan"},{"Id":438,"City":"Tainan","Latitude":22.9833,"Longitude":120.1833,"Country":"Taiwan"},{"Id":439,"City":"Xiping","Latitude":40.082,"Longitude":113.2981,"Country":"China"},{"Id":440,"City":"Port Harcourt","Latitude":4.8242,"Longitude":7.0336,"Country":"Nigeria"},{"Id":441,"City":"Warsaw","Latitude":52.23,"Longitude":21.0111,"Country":"Poland"},{"Id":442,"City":"Jixi","Latitude":45.2937,"Longitude":130.965,"Country":"China"},{"Id":443,"City":"Saidu Sharif","Latitude":34.75,"Longitude":72.3572,"Country":"Pakistan"},{"Id":444,"City":"Liaoyang","Latitude":41.2643,"Longitude":123.1772,"Country":"China"},{"Id":445,"City":"Beihai","Latitude":21.4667,"Longitude":109.1,"Country":"China"},{"Id":446,"City":"Meru","Latitude":0.05,"Longitude":37.65,"Country":"Kenya"},{"Id":447,"City":"Brazzaville","Latitude":-4.2694,"Longitude":15.2714,"Country":"Congo (Brazzaville)"},{"Id":448,"City":"Fuxin","Latitude":42.0127,"Longitude":121.6486,"Country":"China"},{"Id":449,"City":"Wuwei","Latitude":37.9278,"Longitude":102.6329,"Country":"China"},{"Id":450,"City":"Mersin","Latitude":36.8,"Longitude":34.6333,"Country":"Turkey"},{"Id":451,"City":"Bhopal","Latitude":23.25,"Longitude":77.4167,"Country":"India"},{"Id":452,"City":"Lubumbashi","Latitude":-11.6647,"Longitude":27.4794,"Country":"Congo (Kinshasa)"},{"Id":453,"City":"Denpasar","Latitude":-8.65,"Longitude":115.2167,"Country":"Indonesia"},{"Id":454,"City":"Davao","Latitude":7.0667,"Longitude":125.6,"Country":"Philippines"},{"Id":455,"City":"Shuyangzha","Latitude":34.1299,"Longitude":118.7734,"Country":"China"},{"Id":456,"City":"Adana","Latitude":37,"Longitude":35.3213,"Country":"Turkey"},{"Id":457,"City":"Damascus","Latitude":33.5131,"Longitude":36.2919,"Country":"Syria"},{"Id":458,"City":"Brussels","Latitude":50.8467,"Longitude":4.3525,"Country":"Belgium"},{"Id":459,"City":"Hyderabad City","Latitude":25.3792,"Longitude":68.3683,"Country":"Pakistan"},{"Id":460,"City":"Diyarbakir","Latitude":37.91,"Longitude":40.24,"Country":"Turkey"},{"Id":461,"City":"San Jose","Latitude":37.3012,"Longitude":-121.848,"Country":"United States"},{"Id":462,"City":"Chinchvad","Latitude":18.6186,"Longitude":73.8037,"Country":"India"},{"Id":463,"City":"Montevideo","Latitude":-34.8836,"Longitude":-56.1819,"Country":"Uruguay"},{"Id":464,"City":"Pittsburgh","Latitude":40.4397,"Longitude":-79.9763,"Country":"United States"},{"Id":465,"City":"Shuozhou","Latitude":39.3408,"Longitude":112.4292,"Country":"China"},{"Id":466,"City":"Cincinnati","Latitude":39.1413,"Longitude":-84.506,"Country":"United States"},{"Id":467,"City":"Benxi","Latitude":41.292,"Longitude":123.761,"Country":"China"},{"Id":468,"City":"Baiyin","Latitude":36.5448,"Longitude":104.1766,"Country":"China"},{"Id":469,"City":"Mosul","Latitude":36.34,"Longitude":43.13,"Country":"Iraq"},{"Id":470,"City":"Manhattan","Latitude":40.7834,"Longitude":-73.9662,"Country":"United States"},{"Id":471,"City":"Caloocan City","Latitude":14.65,"Longitude":120.97,"Country":"Philippines"},{"Id":472,"City":"Kampala","Latitude":0.3136,"Longitude":32.5811,"Country":"Uganda"},{"Id":473,"City":"Patna","Latitude":25.6,"Longitude":85.1,"Country":"India"},{"Id":474,"City":"Tegucigalpa","Latitude":14.1,"Longitude":-87.2167,"Country":"Honduras"},{"Id":475,"City":"Cleveland","Latitude":41.4764,"Longitude":-81.6805,"Country":"United States"},{"Id":476,"City":"Sanzhou","Latitude":30.82,"Longitude":108.4,"Country":"China"},{"Id":477,"City":"Changshu","Latitude":31.65,"Longitude":120.7333,"Country":"China"},{"Id":478,"City":"Mecca","Latitude":21.4225,"Longitude":39.8233,"Country":"Saudi Arabia"},{"Id":479,"City":"Heihe","Latitude":50.2458,"Longitude":127.4886,"Country":"China"},{"Id":480,"City":"Jingdezhen","Latitude":29.2942,"Longitude":117.2036,"Country":"China"},{"Id":481,"City":"Conakry","Latitude":9.5092,"Longitude":-13.7122,"Country":"Guinea"},{"Id":482,"City":"Recife","Latitude":-8.05,"Longitude":-34.9,"Country":"Brazil"},{"Id":483,"City":"Indianapolis","Latitude":39.7771,"Longitude":-86.1458,"Country":"United States"},{"Id":484,"City":"Austin","Latitude":30.3005,"Longitude":-97.7522,"Country":"United States"},{"Id":485,"City":"Sangereng","Latitude":-6.2889,"Longitude":106.7181,"Country":"Indonesia"},{"Id":486,"City":"Kansas City","Latitude":39.1238,"Longitude":-94.5541,"Country":"United States"},{"Id":487,"City":"Zhongli","Latitude":24.965,"Longitude":121.2168,"Country":"Taiwan"},{"Id":488,"City":"Novosibirsk","Latitude":55.0333,"Longitude":82.9167,"Country":"Russia"},{"Id":489,"City":"Bilaspur","Latitude":22.09,"Longitude":82.15,"Country":"India"},{"Id":490,"City":"Semarang","Latitude":-6.9667,"Longitude":110.4167,"Country":"Indonesia"},{"Id":491,"City":"Ludhiana","Latitude":30.91,"Longitude":75.85,"Country":"India"},{"Id":492,"City":"Narayanganj","Latitude":23.62,"Longitude":90.5,"Country":"Bangladesh"},{"Id":493,"City":"Stockholm","Latitude":59.3294,"Longitude":18.0686,"Country":"Sweden"},{"Id":494,"City":"Chengtangcun","Latitude":35.0833,"Longitude":117.15,"Country":"China"},{"Id":495,"City":"Agra","Latitude":27.18,"Longitude":78.02,"Country":"India"},{"Id":496,"City":"Balandougou","Latitude":13.3558,"Longitude":-9.5517,"Country":"Mali"},{"Id":497,"City":"Agwar","Latitude":27.18,"Longitude":78.02,"Country":"India"},{"Id":498,"City":"Le\u00F3n de los Aldama","Latitude":21.1167,"Longitude":-101.6833,"Country":"Mexico"},{"Id":499,"City":"Yopougon","Latitude":5.3167,"Longitude":-4.0667,"Country":"C\u00F4te d\u0027Ivoire"},{"Id":500,"City":"Puebla","Latitude":19.0333,"Longitude":-98.1833,"Country":"Mexico"},{"Id":501,"City":"Madurai","Latitude":9.9252,"Longitude":78.1198,"Country":"India"},{"Id":502,"City":"Hebi","Latitude":35.7497,"Longitude":114.2887,"Country":"China"},{"Id":503,"City":"C\u00F3rdoba","Latitude":-31.4167,"Longitude":-64.1833,"Country":"Argentina"},{"Id":504,"City":"Shiraz","Latitude":29.61,"Longitude":52.5425,"Country":"Iran"},{"Id":505,"City":"Jamshedpur","Latitude":22.7925,"Longitude":86.1842,"Country":"India"},{"Id":506,"City":"Tabriz","Latitude":38.0814,"Longitude":46.3006,"Country":"Iran"},{"Id":507,"City":"Huzhou","Latitude":30.8925,"Longitude":120.0875,"Country":"China"},{"Id":508,"City":"Columbus","Latitude":39.9862,"Longitude":-82.9855,"Country":"United States"},{"Id":509,"City":"Sofia","Latitude":42.7,"Longitude":23.33,"Country":"Bulgaria"},{"Id":510,"City":"Kawasaki","Latitude":35.5167,"Longitude":139.7,"Country":"Japan"},{"Id":511,"City":"San Jos\u00E9","Latitude":9.9325,"Longitude":-84.08,"Country":"Costa Rica"},{"Id":512,"City":"Aba","Latitude":5.1167,"Longitude":7.3667,"Country":"Nigeria"},{"Id":513,"City":"Palembang","Latitude":-2.9861,"Longitude":104.7556,"Country":"Indonesia"},{"Id":514,"City":"Zhangjiajie","Latitude":29.1255,"Longitude":110.4844,"Country":"China"},{"Id":515,"City":"Kobe","Latitude":34.69,"Longitude":135.1956,"Country":"Japan"},{"Id":516,"City":"Jiaxing","Latitude":30.7522,"Longitude":120.75,"Country":"China"},{"Id":517,"City":"Charlotte","Latitude":35.2083,"Longitude":-80.8303,"Country":"United States"},{"Id":518,"City":"Guiping","Latitude":23.4,"Longitude":110.0833,"Country":"China"},{"Id":519,"City":"Lianjiang","Latitude":21.6146,"Longitude":110.2794,"Country":"China"},{"Id":520,"City":"Ximeicun","Latitude":24.9633,"Longitude":118.3811,"Country":"China"},{"Id":521,"City":"Jianguang","Latitude":28.1958,"Longitude":115.7833,"Country":"China"},{"Id":522,"City":"Yucheng","Latitude":29.9888,"Longitude":103.0007,"Country":"China"},{"Id":523,"City":"Panama City","Latitude":8.9833,"Longitude":-79.5167,"Country":"Panama"},{"Id":524,"City":"Xushan","Latitude":30.1697,"Longitude":121.2665,"Country":"China"},{"Id":525,"City":"Bel\u00E9m","Latitude":-1.4558,"Longitude":-48.5039,"Country":"Brazil"},{"Id":526,"City":"Virginia Beach","Latitude":36.7335,"Longitude":-76.0435,"Country":"United States"},{"Id":527,"City":"Leizhou","Latitude":20.9147,"Longitude":110.0806,"Country":"China"},{"Id":528,"City":"Gwangju","Latitude":35.1653,"Longitude":126.8486,"Country":"South Korea"},{"Id":529,"City":"Nasik","Latitude":20,"Longitude":73.78,"Country":"India"},{"Id":530,"City":"Porto Alegre","Latitude":-30.0331,"Longitude":-51.23,"Country":"Brazil"},{"Id":531,"City":"Valencia","Latitude":10.1667,"Longitude":-68,"Country":"Venezuela"},{"Id":532,"City":"Onitsha","Latitude":6.1667,"Longitude":6.7833,"Country":"Nigeria"},{"Id":533,"City":"Abu Dhabi","Latitude":24.4667,"Longitude":54.3667,"Country":"United Arab Emirates"},{"Id":534,"City":"Daejeon","Latitude":36.351,"Longitude":127.385,"Country":"South Korea"},{"Id":535,"City":"Zapopan","Latitude":20.7167,"Longitude":-103.4,"Country":"Mexico"},{"Id":536,"City":"Bronx","Latitude":40.8501,"Longitude":-73.8662,"Country":"United States"},{"Id":537,"City":"Yekaterinburg","Latitude":56.8356,"Longitude":60.6128,"Country":"Russia"},{"Id":538,"City":"Huazhou","Latitude":32.6832,"Longitude":112.079,"Country":"China"},{"Id":539,"City":"Kyoto","Latitude":35.0117,"Longitude":135.7683,"Country":"Japan"},{"Id":540,"City":"Jinhua","Latitude":29.1046,"Longitude":119.6494,"Country":"China"},{"Id":541,"City":"Amsterdam","Latitude":52.3728,"Longitude":4.8936,"Country":"Netherlands"},{"Id":542,"City":"Shuangyashan","Latitude":46.6388,"Longitude":131.1545,"Country":"China"},{"Id":543,"City":"Pizhou","Latitude":34.3422,"Longitude":118.0097,"Country":"China"},{"Id":544,"City":"El Kelaa des Srarhna","Latitude":32.0481,"Longitude":-7.4083,"Country":"Morocco"},{"Id":545,"City":"Dakar","Latitude":14.6928,"Longitude":-17.4467,"Country":"Senegal"},{"Id":546,"City":"Kharkiv","Latitude":49.9925,"Longitude":36.2311,"Country":"Ukraine"},{"Id":547,"City":"Yangshe","Latitude":31.8775,"Longitude":120.5512,"Country":"China"},{"Id":548,"City":"Guyuan","Latitude":36.008,"Longitude":106.2782,"Country":"China"},{"Id":549,"City":"Rui\u2019an","Latitude":27.778,"Longitude":120.6526,"Country":"China"},{"Id":550,"City":"Khulna","Latitude":22.8167,"Longitude":89.55,"Country":"Bangladesh"},{"Id":551,"City":"Muscat","Latitude":23.6139,"Longitude":58.5922,"Country":"Oman"},{"Id":552,"City":"Wenling","Latitude":28.3797,"Longitude":121.3718,"Country":"China"},{"Id":553,"City":"Gaozhou","Latitude":21.9135,"Longitude":110.8481,"Country":"China"},{"Id":554,"City":"Faridabad","Latitude":28.4167,"Longitude":77.3,"Country":"India"},{"Id":555,"City":"Chizhou","Latitude":30.6583,"Longitude":117.4849,"Country":"China"},{"Id":556,"City":"Tel Aviv-Yafo","Latitude":32.08,"Longitude":34.78,"Country":"Israel"},{"Id":557,"City":"Ulaanbaatar","Latitude":47.9203,"Longitude":106.9172,"Country":"Mongolia"},{"Id":558,"City":"Goi\u00E2nia","Latitude":-16.6667,"Longitude":-49.25,"Country":"Brazil"},{"Id":559,"City":"Fuqing","Latitude":25.7232,"Longitude":119.3735,"Country":"China"},{"Id":560,"City":"Kayseri","Latitude":38.7225,"Longitude":35.4875,"Country":"Turkey"},{"Id":561,"City":"Wuzhong","Latitude":37.9874,"Longitude":106.1919,"Country":"China"},{"Id":562,"City":"Belgrade","Latitude":44.82,"Longitude":20.46,"Country":"Serbia"},{"Id":563,"City":"Pingdu","Latitude":36.7833,"Longitude":119.9556,"Country":"China"},{"Id":564,"City":"Milan","Latitude":45.4669,"Longitude":9.19,"Country":"Italy"},{"Id":565,"City":"Aurangabad","Latitude":19.88,"Longitude":75.32,"Country":"India"},{"Id":566,"City":"Copenhagen","Latitude":55.6761,"Longitude":12.5683,"Country":"Denmark"},{"Id":567,"City":"Yangquan","Latitude":37.8576,"Longitude":113.5762,"Country":"China"},{"Id":568,"City":"Yutan","Latitude":28.3147,"Longitude":112.554,"Country":"China"},{"Id":569,"City":"Huangshan","Latitude":29.7132,"Longitude":118.3151,"Country":"China"},{"Id":570,"City":"Auckland","Latitude":-36.8406,"Longitude":174.74,"Country":"New Zealand"},{"Id":571,"City":"Makassar","Latitude":-5.1619,"Longitude":119.4362,"Country":"Indonesia"},{"Id":572,"City":"Santiago","Latitude":19.4572,"Longitude":-70.6889,"Country":"Dominican Republic"},{"Id":573,"City":"Milwaukee","Latitude":43.0642,"Longitude":-87.9675,"Country":"United States"},{"Id":574,"City":"Rajkot","Latitude":22.3,"Longitude":70.7833,"Country":"India"},{"Id":575,"City":"Prague","Latitude":50.0875,"Longitude":14.4214,"Country":"Czechia"},{"Id":576,"City":"Samsun","Latitude":41.2903,"Longitude":36.3336,"Country":"Turkey"},{"Id":577,"City":"Liangshi","Latitude":27.2578,"Longitude":111.7351,"Country":"China"},{"Id":578,"City":"Barranquilla","Latitude":10.9833,"Longitude":-74.8019,"Country":"Colombia"},{"Id":579,"City":"Saitama","Latitude":35.8614,"Longitude":139.6456,"Country":"Japan"},{"Id":580,"City":"Guarulhos","Latitude":-23.4628,"Longitude":-46.5328,"Country":"Brazil"},{"Id":581,"City":"Al Basrah","Latitude":30.515,"Longitude":47.81,"Country":"Iraq"},{"Id":582,"City":"Mandalay","Latitude":21.9831,"Longitude":96.0844,"Country":"Myanmar"},{"Id":583,"City":"Ju\u00E1rez","Latitude":31.7386,"Longitude":-106.487,"Country":"Mexico"},{"Id":584,"City":"Xintai","Latitude":35.91,"Longitude":117.78,"Country":"China"},{"Id":585,"City":"Wusong","Latitude":30.9333,"Longitude":117.7667,"Country":"China"},{"Id":586,"City":"Meerut","Latitude":28.98,"Longitude":77.71,"Country":"India"},{"Id":587,"City":"Yushu","Latitude":44.8249,"Longitude":126.5451,"Country":"China"},{"Id":588,"City":"Rongcheng","Latitude":26.2312,"Longitude":104.0966,"Country":"China"},{"Id":589,"City":"Huazhou","Latitude":21.654,"Longitude":110.6294,"Country":"China"},{"Id":590,"City":"Adelaide","Latitude":-34.9275,"Longitude":138.6,"Country":"Australia"},{"Id":591,"City":"Baishan","Latitude":41.9377,"Longitude":126.4179,"Country":"China"},{"Id":592,"City":"Dayan","Latitude":26.8808,"Longitude":100.2208,"Country":"China"},{"Id":593,"City":"Haicheng","Latitude":40.8523,"Longitude":122.7474,"Country":"China"},{"Id":594,"City":"Tripoli","Latitude":32.8872,"Longitude":13.1914,"Country":"Libya"},{"Id":595,"City":"Jiangyin","Latitude":31.9087,"Longitude":120.2653,"Country":"China"},{"Id":596,"City":"Yicheng","Latitude":31.3697,"Longitude":119.8239,"Country":"China"},{"Id":597,"City":"Huaiyin","Latitude":33.5819,"Longitude":119.028,"Country":"China"},{"Id":598,"City":"Porto","Latitude":41.1621,"Longitude":-8.622,"Country":"Portugal"},{"Id":599,"City":"Cacuaco","Latitude":-8.8053,"Longitude":13.2444,"Country":"Angola"},{"Id":600,"City":"Soweto","Latitude":-26.2678,"Longitude":27.8585,"Country":"South Africa"},{"Id":601,"City":"Rosario","Latitude":-32.9575,"Longitude":-60.6394,"Country":"Argentina"},{"Id":602,"City":"Canagatan","Latitude":18,"Longitude":121.8,"Country":"Philippines"},{"Id":603,"City":"Helsinki","Latitude":60.1708,"Longitude":24.9375,"Country":"Finland"},{"Id":604,"City":"Jabalpur","Latitude":23.1667,"Longitude":79.9333,"Country":"India"},{"Id":605,"City":"Providence","Latitude":41.823,"Longitude":-71.4187,"Country":"United States"},{"Id":606,"City":"Rucheng","Latitude":32.3852,"Longitude":120.5634,"Country":"China"},{"Id":607,"City":"Nizhniy Novgorod","Latitude":56.3269,"Longitude":44.0075,"Country":"Russia"},{"Id":608,"City":"Ahvaz","Latitude":31.3203,"Longitude":48.6692,"Country":"Iran"},{"Id":609,"City":"Jepara","Latitude":-6.5333,"Longitude":110.6667,"Country":"Indonesia"},{"Id":610,"City":"Shaoyang","Latitude":32.9387,"Longitude":119.8404,"Country":"China"},{"Id":611,"City":"Comayag\u00FCela","Latitude":14.0981,"Longitude":-87.2097,"Country":"Honduras"},{"Id":612,"City":"Laiwu","Latitude":36.1833,"Longitude":117.6667,"Country":"China"},{"Id":613,"City":"Sharjah","Latitude":25.3575,"Longitude":55.3908,"Country":"United Arab Emirates"},{"Id":614,"City":"Kalamboli","Latitude":19.2333,"Longitude":73.1333,"Country":"India"},{"Id":615,"City":"Jingling","Latitude":30.6667,"Longitude":113.1667,"Country":"China"},{"Id":616,"City":"Kazan","Latitude":55.7964,"Longitude":49.1089,"Country":"Russia"},{"Id":617,"City":"Suwon","Latitude":37.2667,"Longitude":127.0167,"Country":"South Korea"},{"Id":618,"City":"Yongcheng","Latitude":33.9317,"Longitude":116.4459,"Country":"China"},{"Id":619,"City":"Sumedang","Latitude":-6.84,"Longitude":107.9208,"Country":"Indonesia"},{"Id":620,"City":"Calgary","Latitude":51.05,"Longitude":-114.0667,"Country":"Canada"},{"Id":621,"City":"C?n Tho","Latitude":10.0333,"Longitude":105.7833,"Country":"Vietnam"},{"Id":622,"City":"Yiwu","Latitude":29.3081,"Longitude":120.0698,"Country":"China"},{"Id":623,"City":"Bagam","Latitude":1.0833,"Longitude":104.0333,"Country":"Indonesia"},{"Id":624,"City":"Beidao","Latitude":34.602,"Longitude":105.918,"Country":"China"},{"Id":625,"City":"Vasai","Latitude":19.47,"Longitude":72.8,"Country":"India"},{"Id":626,"City":"Xiangshui","Latitude":26.5964,"Longitude":104.8314,"Country":"China"},{"Id":627,"City":"Jacksonville","Latitude":30.3322,"Longitude":-81.6749,"Country":"United States"},{"Id":628,"City":"Ak\u00E7aabat","Latitude":41.0167,"Longitude":39.55,"Country":"Turkey"},{"Id":629,"City":"Campinas","Latitude":-22.9058,"Longitude":-47.0608,"Country":"Brazil"},{"Id":630,"City":"Dadukou","Latitude":26.5849,"Longitude":101.7149,"Country":"China"},{"Id":631,"City":"Mombasa","Latitude":-4.05,"Longitude":39.6667,"Country":"Kenya"},{"Id":632,"City":"Lingcheng","Latitude":22.7,"Longitude":110.35,"Country":"China"},{"Id":633,"City":"Najafgarh","Latitude":28.6092,"Longitude":76.9798,"Country":"India"},{"Id":634,"City":"Vila Velha","Latitude":3.2167,"Longitude":-51.2167,"Country":"Brazil"},{"Id":635,"City":"Gazipura","Latitude":23.9889,"Longitude":90.375,"Country":"Bangladesh"},{"Id":636,"City":"Chelyabinsk","Latitude":55.15,"Longitude":61.4,"Country":"Russia"},{"Id":637,"City":"Varanasi","Latitude":25.3189,"Longitude":83.0128,"Country":"India"},{"Id":638,"City":"Xinyu","Latitude":27.795,"Longitude":114.9242,"Country":"China"},{"Id":639,"City":"Qom","Latitude":34.64,"Longitude":50.8764,"Country":"Iran"},{"Id":640,"City":"Hargeysa","Latitude":9.5631,"Longitude":44.0675,"Country":"Somalia"},{"Id":641,"City":"Zhangye","Latitude":38.9355,"Longitude":100.4553,"Country":"China"},{"Id":642,"City":"Hiroshima","Latitude":34.3914,"Longitude":132.4519,"Country":"Japan"},{"Id":643,"City":"Maiduguri","Latitude":11.8333,"Longitude":13.15,"Country":"Nigeria"},{"Id":644,"City":"Chiang Mai","Latitude":18.7953,"Longitude":98.9986,"Country":"Thailand"},{"Id":645,"City":"Doha","Latitude":25.2867,"Longitude":51.5333,"Country":"Qatar"},{"Id":646,"City":"Maputo","Latitude":-25.9667,"Longitude":32.5833,"Country":"Mozambique"},{"Id":647,"City":"Mbandaka","Latitude":0.0478,"Longitude":18.2558,"Country":"Congo (Kinshasa)"},{"Id":648,"City":"Pikine","Latitude":14.75,"Longitude":-17.4,"Country":"Senegal"},{"Id":649,"City":"Medina","Latitude":24.47,"Longitude":39.61,"Country":"Saudi Arabia"},{"Id":650,"City":"Srinagar","Latitude":34.09,"Longitude":74.79,"Country":"India"},{"Id":651,"City":"Omsk","Latitude":54.9667,"Longitude":73.3833,"Country":"Russia"},{"Id":652,"City":"Dublin","Latitude":53.35,"Longitude":-6.2603,"Country":"Ireland"},{"Id":653,"City":"Liaoyuan","Latitude":42.8976,"Longitude":125.1381,"Country":"China"},{"Id":654,"City":"Cilacap","Latitude":-7.7167,"Longitude":109.017,"Country":"Indonesia"},{"Id":655,"City":"Yingtan","Latitude":28.2333,"Longitude":117,"Country":"China"},{"Id":656,"City":"Bandar Lampung","Latitude":-5.45,"Longitude":105.2667,"Country":"Indonesia"},{"Id":657,"City":"Samara","Latitude":53.2028,"Longitude":50.1408,"Country":"Russia"},{"Id":658,"City":"Guankou","Latitude":28.1417,"Longitude":113.625,"Country":"China"},{"Id":659,"City":"Ulsan","Latitude":35.55,"Longitude":129.3167,"Country":"South Korea"},{"Id":660,"City":"Dhanbad","Latitude":23.7998,"Longitude":86.4305,"Country":"India"},{"Id":661,"City":"Dingzhou","Latitude":38.5158,"Longitude":114.9845,"Country":"China"},{"Id":662,"City":"Lianyuan","Latitude":27.6961,"Longitude":111.6659,"Country":"China"},{"Id":663,"City":"Rongcheng","Latitude":29.8239,"Longitude":112.9019,"Country":"China"},{"Id":664,"City":"Kaiyuan","Latitude":36.0656,"Longitude":113.8153,"Country":"China"},{"Id":665,"City":"Nay Pyi Taw","Latitude":19.7475,"Longitude":96.115,"Country":"Myanmar"},{"Id":666,"City":"Zhuji","Latitude":29.7169,"Longitude":120.2314,"Country":"China"},{"Id":667,"City":"Kigali","Latitude":-1.9536,"Longitude":30.0606,"Country":"Rwanda"},{"Id":668,"City":"Bukavu","Latitude":-2.5,"Longitude":28.8667,"Country":"Congo (Kinshasa)"},{"Id":669,"City":"Leiyang","Latitude":26.4179,"Longitude":112.8457,"Country":"China"},{"Id":670,"City":"Bafoussam","Latitude":5.4667,"Longitude":10.4167,"Country":"Cameroon"},{"Id":671,"City":"Yichun","Latitude":47.7235,"Longitude":128.8893,"Country":"China"},{"Id":672,"City":"Benin City","Latitude":6.3333,"Longitude":5.6222,"Country":"Nigeria"},{"Id":673,"City":"Rostov","Latitude":47.2333,"Longitude":39.7,"Country":"Russia"},{"Id":674,"City":"Xiantao","Latitude":30.3833,"Longitude":113.4,"Country":"China"},{"Id":675,"City":"Amritsar","Latitude":31.64,"Longitude":74.86,"Country":"India"},{"Id":676,"City":"Callao","Latitude":-12.0333,"Longitude":-77.1333,"Country":"Peru"},{"Id":677,"City":"Salt Lake City","Latitude":40.7776,"Longitude":-111.9311,"Country":"United States"},{"Id":678,"City":"Aligarh","Latitude":27.88,"Longitude":78.08,"Country":"India"},{"Id":679,"City":"Shagamu","Latitude":6.8333,"Longitude":3.65,"Country":"Nigeria"},{"Id":680,"City":"Yingchuan","Latitude":34.1511,"Longitude":113.4733,"Country":"China"},{"Id":681,"City":"Ciudad Nezahualc\u00F3yotl","Latitude":19.4081,"Longitude":-99.0186,"Country":"Mexico"},{"Id":682,"City":"Tbilisi","Latitude":41.7225,"Longitude":44.7925,"Country":"Georgia"},{"Id":683,"City":"Guwahati","Latitude":26.1722,"Longitude":91.7458,"Country":"India"},{"Id":684,"City":"Ufa","Latitude":54.7261,"Longitude":55.9475,"Country":"Russia"},{"Id":685,"City":"F\u00E8s","Latitude":34.0433,"Longitude":-5.0033,"Country":"Morocco"},{"Id":686,"City":"S\u00E3o Lu\u00EDs","Latitude":-2.5283,"Longitude":-44.3044,"Country":"Brazil"},{"Id":687,"City":"Bi\u00EAn H\u00F2a","Latitude":10.95,"Longitude":106.8167,"Country":"Vietnam"},{"Id":688,"City":"Sevilla","Latitude":37.24,"Longitude":-5.99,"Country":"Spain"},{"Id":689,"City":"N\u2019Djamena","Latitude":12.11,"Longitude":15.05,"Country":"Chad"},{"Id":690,"City":"Mexicali","Latitude":32.6633,"Longitude":-115.4678,"Country":"Mexico"},{"Id":691,"City":"Nezahualc\u00F3yotl","Latitude":19.4006,"Longitude":-99.0148,"Country":"Mexico"},{"Id":692,"City":"Ikare","Latitude":7.5167,"Longitude":5.75,"Country":"Nigeria"},{"Id":693,"City":"Nashville","Latitude":36.1715,"Longitude":-86.7842,"Country":"United States"},{"Id":694,"City":"Tamale","Latitude":9.4075,"Longitude":-0.8533,"Country":"Ghana"},{"Id":695,"City":"Xibeijie","Latitude":39.737,"Longitude":98.5049,"Country":"China"},{"Id":696,"City":"Yuyao","Latitude":30.0372,"Longitude":121.1546,"Country":"China"},{"Id":697,"City":"Haora","Latitude":22.58,"Longitude":88.3294,"Country":"India"},{"Id":698,"City":"Hanchuan","Latitude":30.652,"Longitude":113.8274,"Country":"China"},{"Id":699,"City":"Gongzhuling","Latitude":43.5036,"Longitude":124.8088,"Country":"China"},{"Id":700,"City":"Krasnoyarsk","Latitude":56.0089,"Longitude":92.8719,"Country":"Russia"},{"Id":701,"City":"Cologne","Latitude":50.9364,"Longitude":6.9528,"Country":"Germany"},{"Id":702,"City":"Bujumbura","Latitude":-3.3833,"Longitude":29.3667,"Country":"Burundi"},{"Id":703,"City":"Bishkek","Latitude":42.8747,"Longitude":74.6122,"Country":"Kyrgyzstan"},{"Id":704,"City":"Zhufeng","Latitude":36,"Longitude":119.4167,"Country":"China"},{"Id":705,"City":"S\u00E3o Gon\u00E7alo","Latitude":-22.8269,"Longitude":-43.0539,"Country":"Brazil"},{"Id":706,"City":"Yerevan","Latitude":40.1814,"Longitude":44.5144,"Country":"Armenia"},{"Id":707,"City":"Ezhou","Latitude":30.3972,"Longitude":114.8842,"Country":"China"},{"Id":708,"City":"Nur-Sultan","Latitude":51.1472,"Longitude":71.4222,"Country":"Kazakhstan"},{"Id":709,"City":"Tongjin","Latitude":37.2333,"Longitude":127.2,"Country":"South Korea"},{"Id":710,"City":"Nouakchott","Latitude":18.0858,"Longitude":-15.9785,"Country":"Mauritania"},{"Id":711,"City":"Xiashi","Latitude":30.5333,"Longitude":120.6833,"Country":"China"},{"Id":712,"City":"Ranchi","Latitude":23.36,"Longitude":85.33,"Country":"India"},{"Id":713,"City":"Taixing","Latitude":32.1724,"Longitude":120.0142,"Country":"China"},{"Id":714,"City":"Vereeniging","Latitude":-26.6736,"Longitude":27.9319,"Country":"South Africa"},{"Id":715,"City":"Gwalior","Latitude":26.2215,"Longitude":78.178,"Country":"India"},{"Id":716,"City":"Zhongwei","Latitude":37.5139,"Longitude":105.1884,"Country":"China"},{"Id":717,"City":"Goyang","Latitude":37.65,"Longitude":126.8,"Country":"South Korea"},{"Id":718,"City":"Oslo","Latitude":59.9133,"Longitude":10.7389,"Country":"Norway"},{"Id":719,"City":"Vijayavada","Latitude":16.5193,"Longitude":80.6305,"Country":"India"},{"Id":720,"City":"Chandigarh","Latitude":30.75,"Longitude":76.78,"Country":"India"},{"Id":721,"City":"Edmonton","Latitude":53.5344,"Longitude":-113.4903,"Country":"Canada"},{"Id":722,"City":"Sendai","Latitude":38.2682,"Longitude":140.8694,"Country":"Japan"},{"Id":723,"City":"Raleigh","Latitude":35.8324,"Longitude":-78.6429,"Country":"United States"},{"Id":724,"City":"Mizhou","Latitude":35.99,"Longitude":119.3801,"Country":"China"},{"Id":725,"City":"Tunis","Latitude":36.8064,"Longitude":10.1817,"Country":"Tunisia"},{"Id":726,"City":"Xishan","Latitude":27.6609,"Longitude":113.4946,"Country":"China"},{"Id":727,"City":"Barquisimeto","Latitude":10.0678,"Longitude":-69.3467,"Country":"Venezuela"},{"Id":728,"City":"Hegang","Latitude":47.3139,"Longitude":130.2775,"Country":"China"},{"Id":729,"City":"Voronezh","Latitude":51.6717,"Longitude":39.2106,"Country":"Russia"},{"Id":730,"City":"Perm","Latitude":58.0139,"Longitude":56.2489,"Country":"Russia"},{"Id":731,"City":"Changwon","Latitude":35.2708,"Longitude":128.6631,"Country":"South Korea"},{"Id":732,"City":"Fangchenggang","Latitude":21.6,"Longitude":108.3,"Country":"China"},{"Id":733,"City":"Shouguang","Latitude":36.8833,"Longitude":118.7333,"Country":"China"},{"Id":734,"City":"Bogor","Latitude":-6.5966,"Longitude":106.7972,"Country":"Indonesia"},{"Id":735,"City":"Cartagena","Latitude":10.4,"Longitude":-75.5,"Country":"Colombia"},{"Id":736,"City":"Matola","Latitude":-25.9667,"Longitude":32.4667,"Country":"Mozambique"},{"Id":737,"City":"Jodhpur","Latitude":26.28,"Longitude":73.02,"Country":"India"},{"Id":738,"City":"Memphis","Latitude":35.1087,"Longitude":-89.9663,"Country":"United States"},{"Id":739,"City":"Ogbomoso","Latitude":8.1333,"Longitude":4.25,"Country":"Nigeria"},{"Id":740,"City":"Rangapukur","Latitude":25.56,"Longitude":89.25,"Country":"Bangladesh"},{"Id":741,"City":"Managua","Latitude":12.1544,"Longitude":-86.2738,"Country":"Nicaragua"},{"Id":742,"City":"Sanya","Latitude":18.2533,"Longitude":109.5036,"Country":"China"},{"Id":743,"City":"Shymkent","Latitude":42.3167,"Longitude":69.5958,"Country":"Kazakhstan"},{"Id":744,"City":"Wutong","Latitude":30.6326,"Longitude":120.5474,"Country":"China"},{"Id":745,"City":"Niamey","Latitude":13.515,"Longitude":2.1175,"Country":"Niger"},{"Id":746,"City":"Shubra al Khaymah","Latitude":30.1286,"Longitude":31.2422,"Country":"Egypt"},{"Id":747,"City":"Linhai","Latitude":28.8523,"Longitude":121.1409,"Country":"China"},{"Id":748,"City":"Denizli","Latitude":37.7667,"Longitude":29.0833,"Country":"Turkey"},{"Id":749,"City":"Macei\u00F3","Latitude":-9.6658,"Longitude":-35.735,"Country":"Brazil"},{"Id":750,"City":"Monrovia","Latitude":6.3133,"Longitude":-10.8014,"Country":"Liberia"},{"Id":751,"City":"Wafangdian","Latitude":39.6271,"Longitude":121.9972,"Country":"China"},{"Id":752,"City":"Zhongxiang","Latitude":31.169,"Longitude":112.5853,"Country":"China"},{"Id":753,"City":"Louisville","Latitude":38.1663,"Longitude":-85.6485,"Country":"United States"},{"Id":754,"City":"Odesa","Latitude":46.4775,"Longitude":30.7326,"Country":"Ukraine"},{"Id":755,"City":"Th? \u00D0?c","Latitude":10.8266,"Longitude":106.7609,"Country":"Vietnam"},{"Id":756,"City":"Volgograd","Latitude":48.7086,"Longitude":44.5147,"Country":"Russia"},{"Id":757,"City":"Islamabad","Latitude":33.6931,"Longitude":73.0639,"Country":"Pakistan"},{"Id":758,"City":"Port-au-Prince","Latitude":18.5333,"Longitude":-72.3333,"Country":"Haiti"},{"Id":759,"City":"Xinyi","Latitude":22.3559,"Longitude":110.9369,"Country":"China"},{"Id":760,"City":"Raipur","Latitude":21.25,"Longitude":81.63,"Country":"India"},{"Id":761,"City":"Arequipa","Latitude":-16.4,"Longitude":-71.5333,"Country":"Peru"},{"Id":762,"City":"Richmond","Latitude":37.5295,"Longitude":-77.4756,"Country":"United States"},{"Id":763,"City":"Zaoyang","Latitude":32.1287,"Longitude":112.7581,"Country":"China"},{"Id":764,"City":"Buffalo","Latitude":42.9018,"Longitude":-78.8487,"Country":"United States"},{"Id":765,"City":"Shuizhai","Latitude":33.4433,"Longitude":114.8994,"Country":"China"},{"Id":766,"City":"Xingyi","Latitude":25.091,"Longitude":104.9011,"Country":"China"},{"Id":767,"City":"Kota","Latitude":25.18,"Longitude":75.83,"Country":"India"},{"Id":768,"City":"Quetta","Latitude":30.1833,"Longitude":67,"Country":"Pakistan"},{"Id":769,"City":"Kathmandu","Latitude":27.7172,"Longitude":85.324,"Country":"Nepal"},{"Id":770,"City":"Ottawa","Latitude":45.4247,"Longitude":-75.695,"Country":"Canada"},{"Id":771,"City":"Lilongwe","Latitude":-13.9833,"Longitude":33.7833,"Country":"Malawi"},{"Id":772,"City":"Asmara","Latitude":15.3228,"Longitude":38.925,"Country":"Eritrea"},{"Id":773,"City":"Freetown","Latitude":8.4844,"Longitude":-13.2344,"Country":"Sierra Leone"},{"Id":774,"City":"Vientiane","Latitude":17.9667,"Longitude":102.6,"Country":"Laos"},{"Id":775,"City":"Jerusalem","Latitude":31.7784,"Longitude":35.2066,"Country":"Israel"},{"Id":776,"City":"Riga","Latitude":56.9489,"Longitude":24.1064,"Country":"Latvia"},{"Id":777,"City":"Bangui","Latitude":4.3733,"Longitude":18.5628,"Country":"Central African Republic"},{"Id":778,"City":"Dushanbe","Latitude":38.5367,"Longitude":68.78,"Country":"Tajikistan"},{"Id":779,"City":"Lom\u00E9","Latitude":6.1319,"Longitude":1.2228,"Country":"Togo"},{"Id":780,"City":"Ashgabat","Latitude":37.95,"Longitude":58.3833,"Country":"Turkmenistan"},{"Id":781,"City":"Zagreb","Latitude":45.8167,"Longitude":15.9833,"Country":"Croatia"},{"Id":782,"City":"Libreville","Latitude":0.3903,"Longitude":9.4542,"Country":"Gabon"},{"Id":783,"City":"Cotonou","Latitude":6.3667,"Longitude":2.4333,"Country":"Benin"},{"Id":784,"City":"Pretoria","Latitude":-25.7461,"Longitude":28.1881,"Country":"South Africa"},{"Id":785,"City":"Vilnius","Latitude":54.6872,"Longitude":25.28,"Country":"Lithuania"},{"Id":786,"City":"Winnipeg","Latitude":49.8844,"Longitude":-97.1464,"Country":"Canada"},{"Id":787,"City":"Quebec City","Latitude":46.8139,"Longitude":-71.2081,"Country":"Canada"},{"Id":788,"City":"Chisinau","Latitude":47.0228,"Longitude":28.8353,"Country":"Moldova"},{"Id":789,"City":"Port Moresby","Latitude":-9.4789,"Longitude":147.1494,"Country":"Papua New Guinea"},{"Id":790,"City":"Skopje","Latitude":41.9961,"Longitude":21.4317,"Country":"Macedonia"},{"Id":791,"City":"Djibouti","Latitude":11.5883,"Longitude":43.145,"Country":"Djibouti"},{"Id":792,"City":"Gaza","Latitude":31.5069,"Longitude":34.456,"Country":"Gaza Strip"},{"Id":793,"City":"Kingston","Latitude":17.9714,"Longitude":-76.7931,"Country":"Jamaica"},{"Id":794,"City":"Rabat","Latitude":34.0209,"Longitude":-6.8416,"Country":"Morocco"},{"Id":795,"City":"San Salvador","Latitude":13.6989,"Longitude":-89.1914,"Country":"El Salvador"},{"Id":796,"City":"The Hague","Latitude":52.08,"Longitude":4.31,"Country":"Netherlands"},{"Id":797,"City":"Asunci\u00F3n","Latitude":-25.3,"Longitude":-57.6333,"Country":"Paraguay"},{"Id":798,"City":"Juba","Latitude":4.85,"Longitude":31.6,"Country":"South Sudan"},{"Id":799,"City":"Maseru","Latitude":-29.31,"Longitude":27.48,"Country":"Lesotho"},{"Id":800,"City":"Bissau","Latitude":11.85,"Longitude":-15.5667,"Country":"Guinea-Bissau"},{"Id":801,"City":"Valletta","Latitude":35.8983,"Longitude":14.5125,"Country":"Malta"},{"Id":802,"City":"Bratislava","Latitude":48.1439,"Longitude":17.1097,"Country":"Slovakia"},{"Id":803,"City":"Kitchener","Latitude":43.4186,"Longitude":-80.4728,"Country":"Canada"},{"Id":804,"City":"Manama","Latitude":26.225,"Longitude":50.5775,"Country":"Bahrain"},{"Id":805,"City":"Tallinn","Latitude":59.4372,"Longitude":24.7453,"Country":"Estonia"},{"Id":806,"City":"Beirut","Latitude":33.8869,"Longitude":35.5131,"Country":"Lebanon"},{"Id":807,"City":"Cape Town","Latitude":-33.9253,"Longitude":18.4239,"Country":"South Africa"},{"Id":808,"City":"Tirana","Latitude":41.3289,"Longitude":19.8178,"Country":"Albania"},{"Id":809,"City":"Sarajevo","Latitude":43.8564,"Longitude":18.4131,"Country":"Bosnia and Herzegovina"},{"Id":810,"City":"Wellington","Latitude":-41.2889,"Longitude":174.7772,"Country":"New Zealand"},{"Id":811,"City":"Banjul","Latitude":13.4531,"Longitude":-16.5775,"Country":"The Gambia"},{"Id":812,"City":"Halifax","Latitude":44.6475,"Longitude":-63.5906,"Country":"Canada"},{"Id":813,"City":"Canberra","Latitude":-35.2931,"Longitude":149.1269,"Country":"Australia"},{"Id":814,"City":"Yamoussoukro","Latitude":6.8161,"Longitude":-5.2742,"Country":"C\u00F4te d\u0027Ivoire"},{"Id":815,"City":"Victoria","Latitude":48.4283,"Longitude":-123.3647,"Country":"Canada"},{"Id":816,"City":"Nicosia","Latitude":35.1725,"Longitude":33.365,"Country":"Cyprus"},{"Id":817,"City":"Windhoek","Latitude":-22.57,"Longitude":17.0836,"Country":"Namibia"},{"Id":818,"City":"Saint-Denis","Latitude":-20.8789,"Longitude":55.4481,"Country":"Reunion"},{"Id":819,"City":"Porto-Novo","Latitude":6.4972,"Longitude":2.605,"Country":"Benin"},{"Id":820,"City":"Sucre","Latitude":-19.0475,"Longitude":-65.26,"Country":"Bolivia"},{"Id":821,"City":"Ljubljana","Latitude":46.0514,"Longitude":14.5061,"Country":"Slovenia"},{"Id":822,"City":"Nassau","Latitude":25.0781,"Longitude":-77.3386,"Country":"The Bahamas"},{"Id":823,"City":"Bloemfontein","Latitude":-29.1167,"Longitude":26.2167,"Country":"South Africa"},{"Id":824,"City":"Fort-de-France","Latitude":14.6,"Longitude":-61.0667,"Country":"Martinique"},{"Id":825,"City":"New Delhi","Latitude":28.6139,"Longitude":77.209,"Country":"India"},{"Id":826,"City":"Gaborone","Latitude":-24.6581,"Longitude":25.9122,"Country":"Botswana"},{"Id":827,"City":"Paramaribo","Latitude":5.8522,"Longitude":-55.2039,"Country":"Suriname"},{"Id":828,"City":"Dili","Latitude":-8.5536,"Longitude":125.5783,"Country":"Timor-Leste"},{"Id":829,"City":"Dodoma","Latitude":-6.1731,"Longitude":35.7419,"Country":"Tanzania"},{"Id":830,"City":"Georgetown","Latitude":6.8058,"Longitude":-58.1508,"Country":"Guyana"},{"Id":831,"City":"Gibraltar","Latitude":36.1333,"Longitude":-5.35,"Country":"Gibraltar"},{"Id":832,"City":"Malabo","Latitude":3.75,"Longitude":8.7833,"Country":"Equatorial Guinea"},{"Id":833,"City":"Suva","Latitude":-18.1416,"Longitude":178.4419,"Country":"Fiji"},{"Id":834,"City":"Noum\u00E9a","Latitude":-22.2758,"Longitude":166.458,"Country":"New Caledonia"},{"Id":835,"City":"Pristina","Latitude":42.6633,"Longitude":21.1622,"Country":"Kosovo"},{"Id":836,"City":"Male","Latitude":4.1753,"Longitude":73.5089,"Country":"Maldives"},{"Id":837,"City":"Port Louis","Latitude":-20.1644,"Longitude":57.5042,"Country":"Mauritius"},{"Id":838,"City":"Podgorica","Latitude":42.4413,"Longitude":19.2629,"Country":"Montenegro"},{"Id":839,"City":"Willemstad","Latitude":12.108,"Longitude":-68.935,"Country":"Cura\u00E7ao"},{"Id":840,"City":"Bern","Latitude":46.9481,"Longitude":7.4475,"Country":"Switzerland"},{"Id":841,"City":"Gitega","Latitude":-3.4283,"Longitude":29.925,"Country":"Burundi"},{"Id":842,"City":"Reykjav\u00EDk","Latitude":64.1467,"Longitude":-21.94,"Country":"Iceland"},{"Id":843,"City":"Luxembourg","Latitude":49.6117,"Longitude":6.1319,"Country":"Luxembourg"},{"Id":844,"City":"Papeete","Latitude":-17.5334,"Longitude":-149.5667,"Country":"French Polynesia"},{"Id":845,"City":"Praia","Latitude":14.918,"Longitude":-23.509,"Country":"Cabo Verde"},{"Id":846,"City":"Sri Jayewardenepura Kotte","Latitude":6.9108,"Longitude":79.8878,"Country":"Sri Lanka"},{"Id":847,"City":"Bridgetown","Latitude":13.0975,"Longitude":-59.6167,"Country":"Barbados"},{"Id":848,"City":"Moroni","Latitude":-11.699,"Longitude":43.256,"Country":"Comoros"},{"Id":849,"City":"Thimphu","Latitude":27.4722,"Longitude":89.6361,"Country":"Bhutan"},{"Id":850,"City":"Mbabane","Latitude":-26.3208,"Longitude":31.1617,"Country":"Swaziland"},{"Id":851,"City":"Honiara","Latitude":-9.4319,"Longitude":159.9556,"Country":"Solomon Islands"},{"Id":852,"City":"Port of Spain","Latitude":10.6667,"Longitude":-61.5167,"Country":"Trinidad and Tobago"},{"Id":853,"City":"Castries","Latitude":14.0167,"Longitude":-60.9833,"Country":"Saint Lucia"},{"Id":854,"City":"Putrajaya","Latitude":2.93,"Longitude":101.69,"Country":"Malaysia"},{"Id":855,"City":"Cayenne","Latitude":4.933,"Longitude":-52.33,"Country":"French Guiana"},{"Id":856,"City":"S\u00E3o Tom\u00E9","Latitude":0.3361,"Longitude":6.7306,"Country":"Sao Tome and Principe"},{"Id":857,"City":"Port-Vila","Latitude":-17.7333,"Longitude":168.3167,"Country":"Vanuatu"},{"Id":858,"City":"Bandar Seri Begawan","Latitude":4.8903,"Longitude":114.9422,"Country":"Brunei"},{"Id":859,"City":"Monaco","Latitude":43.7333,"Longitude":7.4167,"Country":"Monaco"},{"Id":860,"City":"Apia","Latitude":-13.8333,"Longitude":-171.75,"Country":"Samoa"},{"Id":861,"City":"Tarawa","Latitude":1.3382,"Longitude":173.0176,"Country":"Kiribati"},{"Id":862,"City":"Oranjestad","Latitude":12.5186,"Longitude":-70.0358,"Country":"Aruba"},{"Id":863,"City":"Saint Helier","Latitude":49.1858,"Longitude":-2.11,"Country":"Jersey"},{"Id":864,"City":"Mamoudzou","Latitude":-12.7794,"Longitude":45.2272,"Country":"Mayotte"},{"Id":865,"City":"Majuro","Latitude":7.0833,"Longitude":171.3833,"Country":"Marshall Islands"},{"Id":866,"City":"Douglas","Latitude":54.145,"Longitude":-4.482,"Country":"Isle Of Man"},{"Id":867,"City":"George Town","Latitude":19.2866,"Longitude":-81.3744,"Country":"Cayman Islands"},{"Id":868,"City":"Victoria","Latitude":-4.6167,"Longitude":55.45,"Country":"Seychelles"},{"Id":869,"City":"Kingstown","Latitude":13.1578,"Longitude":-61.225,"Country":"Saint Vincent and the Grenadines"},{"Id":870,"City":"Andorra la Vella","Latitude":42.5,"Longitude":1.5,"Country":"Andorra"},{"Id":871,"City":"Saint John\u2019s","Latitude":17.1167,"Longitude":-61.85,"Country":"Antigua and Barbuda"},{"Id":872,"City":"Nuku\u2018alofa","Latitude":-21.1333,"Longitude":-175.2,"Country":"Tonga"},{"Id":873,"City":"Nuuk","Latitude":64.1814,"Longitude":-51.6942,"Country":"Greenland"},{"Id":874,"City":"Belmopan","Latitude":17.2514,"Longitude":-88.7669,"Country":"Belize"},{"Id":875,"City":"Roseau","Latitude":15.3014,"Longitude":-61.3883,"Country":"Dominica"},{"Id":876,"City":"Basseterre","Latitude":17.3,"Longitude":-62.7333,"Country":"Saint Kitts and Nevis"},{"Id":877,"City":"T\u00F3rshavn","Latitude":62,"Longitude":-6.7833,"Country":"Faroe Islands"},{"Id":878,"City":"Road Town","Latitude":18.4167,"Longitude":-64.6167,"Country":"British Virgin Islands"},{"Id":879,"City":"Pago Pago","Latitude":-14.274,"Longitude":-170.7046,"Country":"American Samoa"},{"Id":880,"City":"Grand Turk","Latitude":21.4664,"Longitude":-71.136,"Country":"Turks and Caicos Islands"},{"Id":881,"City":"Marigot","Latitude":18.0706,"Longitude":-63.0847,"Country":"Saint Martin"},{"Id":882,"City":"Palikir","Latitude":6.9178,"Longitude":158.185,"Country":"Federated States of Micronesia"},{"Id":883,"City":"Funafuti","Latitude":-8.5167,"Longitude":179.2,"Country":"Tuvalu"},{"Id":884,"City":"Vaduz","Latitude":47.141,"Longitude":9.521,"Country":"Liechtenstein"},{"Id":885,"City":"Lobamba","Latitude":-26.4465,"Longitude":31.2064,"Country":"Swaziland"},{"Id":886,"City":"Avarua","Latitude":-21.207,"Longitude":-159.771,"Country":"Cook Islands"},{"Id":887,"City":"Saint George\u2019s","Latitude":12.05,"Longitude":-61.75,"Country":"Grenada"},{"Id":888,"City":"San Marino","Latitude":43.9346,"Longitude":12.4473,"Country":"San Marino"},{"Id":889,"City":"Tifariti","Latitude":26.158,"Longitude":-10.567,"Country":"Morocco"},{"Id":890,"City":"Philipsburg","Latitude":18.0237,"Longitude":-63.0458,"Country":"Sint Maarten"},{"Id":891,"City":"Capitol Hill","Latitude":15.2137,"Longitude":145.7546,"Country":"Northern Mariana Islands"},{"Id":892,"City":"Stanley","Latitude":-51.7,"Longitude":-57.85,"Country":"Falkland Islands (Islas Malvinas)"},{"Id":893,"City":"Hamilton","Latitude":32.2942,"Longitude":-64.7839,"Country":"Bermuda"},{"Id":894,"City":"Vatican City","Latitude":41.904,"Longitude":12.453,"Country":"Vatican City"},{"Id":895,"City":"Alofi","Latitude":-19.056,"Longitude":-169.921,"Country":"Niue"},{"Id":896,"City":"Basse-Terre","Latitude":16.0104,"Longitude":-61.7055,"Country":"Guadeloupe"},{"Id":897,"City":"Hag\u00E5t\u00F1a","Latitude":13.4745,"Longitude":144.7504,"Country":"Guam"},{"Id":898,"City":"Jamestown","Latitude":-15.9251,"Longitude":-5.7179,"Country":"Saint Helena, Ascension, and Tristan da Cunha"},{"Id":899,"City":"Brades","Latitude":16.7928,"Longitude":-62.2106,"Country":"Montserrat"},{"Id":900,"City":"Yaren","Latitude":-0.5477,"Longitude":166.9209,"Country":"Nauru"},{"Id":901,"City":"Gustavia","Latitude":17.8958,"Longitude":-62.8508,"Country":"Saint Barthelemy"},{"Id":902,"City":"Ngerulmud","Latitude":7.5006,"Longitude":134.6242,"Country":"Palau"},{"Id":903,"City":"Saint-Pierre","Latitude":46.7811,"Longitude":-56.1764,"Country":"Saint Pierre and Miquelon"},{"Id":904,"City":"The Valley","Latitude":18.2167,"Longitude":-63.05,"Country":"Anguilla"},{"Id":905,"City":"Mata-Utu","Latitude":-13.2825,"Longitude":-176.1736,"Country":"Wallis and Futuna"},{"Id":906,"City":"Kingston","Latitude":-29.0569,"Longitude":167.9617,"Country":"Norfolk Island"},{"Id":907,"City":"Longyearbyen","Latitude":78.2167,"Longitude":15.6333,"Country":"Svalbard"},{"Id":908,"City":"Adamstown","Latitude":-25.0667,"Longitude":-130.0833,"Country":"Pitcairn Islands"},{"Id":909,"City":"Flying Fish Cove","Latitude":-10.4167,"Longitude":105.7167,"Country":"Christmas Island"},{"Id":910,"City":"King Edward Point","Latitude":-54.2833,"Longitude":-36.5,"Country":"South Georgia And South Sandwich Islands"},{"Id":911,"City":"Bareilly","Latitude":28.364,"Longitude":79.415,"Country":"India"},{"Id":912,"City":"Qu?ng H\u00E0","Latitude":15.9333,"Longitude":108.2667,"Country":"Vietnam"},{"Id":913,"City":"Domaa-Ahenkro","Latitude":7.2833,"Longitude":-2.8833,"Country":"Ghana"},{"Id":914,"City":"Oklahoma City","Latitude":35.4676,"Longitude":-97.5136,"Country":"United States"},{"Id":915,"City":"Xingcheng","Latitude":24.1681,"Longitude":115.6669,"Country":"China"},{"Id":916,"City":"Dongtai","Latitude":32.8534,"Longitude":120.3037,"Country":"China"},{"Id":917,"City":"Yingcheng","Latitude":24.1878,"Longitude":113.4042,"Country":"China"},{"Id":918,"City":"Chiba","Latitude":35.6073,"Longitude":140.1064,"Country":"Japan"},{"Id":919,"City":"Al Mijlad","Latitude":11.0339,"Longitude":27.74,"Country":"Sudan"},{"Id":920,"City":"Pekanbaru","Latitude":0.5092,"Longitude":101.4453,"Country":"Indonesia"},{"Id":921,"City":"Luocheng","Latitude":22.7645,"Longitude":111.5745,"Country":"China"},{"Id":922,"City":"Dnipro","Latitude":48.4675,"Longitude":35.04,"Country":"Ukraine"},{"Id":923,"City":"Danyang","Latitude":31.9948,"Longitude":119.575,"Country":"China"},{"Id":924,"City":"Gode","Latitude":5.9527,"Longitude":43.5516,"Country":"Ethiopia"},{"Id":925,"City":"Natal","Latitude":-6.9838,"Longitude":-60.2699,"Country":"Brazil"},{"Id":926,"City":"Nada","Latitude":19.5,"Longitude":109.5833,"Country":"China"},{"Id":927,"City":"Zamboanga City","Latitude":6.9042,"Longitude":122.0761,"Country":"Philippines"},{"Id":928,"City":"Kirkuk","Latitude":35.4667,"Longitude":44.3167,"Country":"Iraq"},{"Id":929,"City":"Bridgeport","Latitude":41.1918,"Longitude":-73.1954,"Country":"United States"},{"Id":930,"City":"Naples","Latitude":40.8333,"Longitude":14.25,"Country":"Italy"},{"Id":931,"City":"Wuchuan","Latitude":21.4283,"Longitude":110.7749,"Country":"China"},{"Id":932,"City":"Huilong","Latitude":31.8131,"Longitude":121.6574,"Country":"China"},{"Id":933,"City":"Morelia","Latitude":19.7683,"Longitude":-101.1894,"Country":"Mexico"},{"Id":934,"City":"M\u00E1laga","Latitude":36.7194,"Longitude":-4.42,"Country":"Spain"},{"Id":935,"City":"Cebu City","Latitude":10.32,"Longitude":123.75,"Country":"Philippines"},{"Id":936,"City":"Al Mansurah","Latitude":31.05,"Longitude":31.3833,"Country":"Egypt"},{"Id":937,"City":"Coimbatore","Latitude":11.0168,"Longitude":76.9558,"Country":"India"},{"Id":938,"City":"Santo Domingo Este","Latitude":18.4855,"Longitude":-69.8734,"Country":"Dominican Republic"},{"Id":939,"City":"Setagaya","Latitude":35.6466,"Longitude":139.6532,"Country":"Japan"},{"Id":940,"City":"Songnam","Latitude":37.4333,"Longitude":127.15,"Country":"South Korea"},{"Id":941,"City":"Taishan","Latitude":22.2486,"Longitude":112.785,"Country":"China"},{"Id":942,"City":"Teresina","Latitude":-5.0949,"Longitude":-42.8042,"Country":"Brazil"},{"Id":943,"City":"Solapur","Latitude":17.68,"Longitude":75.92,"Country":"India"},{"Id":944,"City":"Tangier","Latitude":35.7767,"Longitude":-5.8039,"Country":"Morocco"},{"Id":945,"City":"Kermanshah","Latitude":34.3142,"Longitude":47.065,"Country":"Iran"},{"Id":946,"City":"Krasnodar","Latitude":45.0333,"Longitude":38.9667,"Country":"Russia"},{"Id":947,"City":"Baidoa","Latitude":3.1167,"Longitude":43.65,"Country":"Somalia"},{"Id":948,"City":"Gaalkacyo","Latitude":6.7697,"Longitude":47.4308,"Country":"Somalia"},{"Id":949,"City":"Anqiu","Latitude":36.3619,"Longitude":119.1072,"Country":"China"},{"Id":950,"City":"Feicheng","Latitude":36.186,"Longitude":116.772,"Country":"China"},{"Id":951,"City":"Seberang Jaya","Latitude":5.4,"Longitude":100.4667,"Country":"Malaysia"},{"Id":952,"City":"El Alto","Latitude":-16.5047,"Longitude":-68.1633,"Country":"Bolivia"},{"Id":953,"City":"Kitakyushu","Latitude":33.8833,"Longitude":130.8833,"Country":"Japan"},{"Id":954,"City":"Meishan","Latitude":34.1736,"Longitude":112.839,"Country":"China"},{"Id":955,"City":"Khartoum North","Latitude":15.6333,"Longitude":32.6333,"Country":"Sudan"},{"Id":956,"City":"Kisangani","Latitude":0.5153,"Longitude":25.1911,"Country":"Congo (Kinshasa)"},{"Id":957,"City":"Aguascalientes","Latitude":21.876,"Longitude":-102.296,"Country":"Mexico"},{"Id":958,"City":"Marrakech","Latitude":31.63,"Longitude":-8.0089,"Country":"Morocco"},{"Id":959,"City":"Donetsk","Latitude":48.0028,"Longitude":37.8053,"Country":"Ukraine"},{"Id":960,"City":"Trujillo","Latitude":-8.112,"Longitude":-79.0288,"Country":"Peru"},{"Id":961,"City":"New Orleans","Latitude":30.0687,"Longitude":-89.9288,"Country":"United States"},{"Id":962,"City":"Taihe","Latitude":30.8706,"Longitude":105.3784,"Country":"China"},{"Id":963,"City":"Trichinopoly","Latitude":10.7903,"Longitude":78.7047,"Country":"India"},{"Id":964,"City":"Xin\u2019an","Latitude":34.3662,"Longitude":118.3369,"Country":"China"},{"Id":965,"City":"Taihecun","Latitude":45.768,"Longitude":131.0063,"Country":"China"},{"Id":966,"City":"Kashgar","Latitude":39.4681,"Longitude":75.9938,"Country":"China"},{"Id":967,"City":"Naucalpan de Ju\u00E1rez","Latitude":19.4753,"Longitude":-99.2378,"Country":"Mexico"},{"Id":968,"City":"\u00C7ankaya","Latitude":39.9244,"Longitude":32.8856,"Country":"Turkey"},{"Id":969,"City":"Santiago de Cuba","Latitude":20.0217,"Longitude":-75.8294,"Country":"Cuba"},{"Id":970,"City":"Owerri","Latitude":5.4833,"Longitude":7.0333,"Country":"Nigeria"},{"Id":971,"City":"Padang","Latitude":-0.95,"Longitude":100.3531,"Country":"Indonesia"},{"Id":972,"City":"Qingzhou","Latitude":36.6967,"Longitude":118.4797,"Country":"China"},{"Id":973,"City":"Lichuan","Latitude":30.2965,"Longitude":108.9378,"Country":"China"},{"Id":974,"City":"Santiago del Estero","Latitude":-27.7833,"Longitude":-64.2667,"Country":"Argentina"},{"Id":975,"City":"Daye","Latitude":30.1003,"Longitude":114.9699,"Country":"China"},{"Id":976,"City":"Hengzhou","Latitude":22.6896,"Longitude":109.2674,"Country":"China"},{"Id":977,"City":"Fort Worth","Latitude":32.7817,"Longitude":-97.3474,"Country":"United States"},{"Id":978,"City":"Hartford","Latitude":41.7661,"Longitude":-72.6834,"Country":"United States"},{"Id":979,"City":"Esenyurt","Latitude":41.047,"Longitude":28.658,"Country":"Turkey"},{"Id":980,"City":"Campo Grande","Latitude":-20.4839,"Longitude":-54.615,"Country":"Brazil"},{"Id":981,"City":"Zhuanghe","Latitude":39.6896,"Longitude":122.9664,"Country":"China"},{"Id":982,"City":"Bobo-Dioulasso","Latitude":11.1833,"Longitude":-4.2833,"Country":"Burkina Faso"},{"Id":983,"City":"Ad Dammam","Latitude":26.4333,"Longitude":50.1,"Country":"Saudi Arabia"},{"Id":984,"City":"Quzhou","Latitude":28.9545,"Longitude":118.8763,"Country":"China"},{"Id":985,"City":"Lhasa","Latitude":29.6534,"Longitude":91.1719,"Country":"China"},{"Id":986,"City":"Jiaozhou","Latitude":36.2481,"Longitude":119.9625,"Country":"China"},{"Id":987,"City":"Bunia","Latitude":1.5667,"Longitude":30.25,"Country":"Congo (Kinshasa)"},{"Id":988,"City":"Taguig City","Latitude":14.52,"Longitude":121.05,"Country":"Philippines"},{"Id":989,"City":"Canc\u00FAn","Latitude":21.1606,"Longitude":-86.8475,"Country":"Mexico"},{"Id":990,"City":"M\u00E9rida","Latitude":20.97,"Longitude":-89.62,"Country":"Mexico"},{"Id":991,"City":"Yangchun","Latitude":22.1717,"Longitude":111.7846,"Country":"China"},{"Id":992,"City":"Dengtalu","Latitude":36.1386,"Longitude":114.1066,"Country":"China"},{"Id":993,"City":"Moradabad","Latitude":28.8389,"Longitude":78.7769,"Country":"India"},{"Id":994,"City":"Antipolo","Latitude":14.5842,"Longitude":121.1763,"Country":"Philippines"},{"Id":995,"City":"Abeokuta","Latitude":7.1608,"Longitude":3.3483,"Country":"Nigeria"},{"Id":996,"City":"Bucheon","Latitude":37.5,"Longitude":126.7833,"Country":"South Korea"},{"Id":997,"City":"Zhoushan","Latitude":29.9887,"Longitude":122.2049,"Country":"China"},{"Id":998,"City":"Tiruppur","Latitude":11.1085,"Longitude":77.3411,"Country":"India"},{"Id":999,"City":"Natal","Latitude":-5.7833,"Longitude":-35.2,"Country":"Brazil"},{"Id":1000,"City":"Chihuahua","Latitude":28.6353,"Longitude":-106.0889,"Country":"Mexico"},{"Id":1001,"City":"Klang","Latitude":3.0333,"Longitude":101.45,"Country":"Malaysia"},{"Id":1002,"City":"As Sulaymaniyah","Latitude":35.5572,"Longitude":45.4356,"Country":"Iraq"},{"Id":1003,"City":"Gurgaon","Latitude":28.456,"Longitude":77.029,"Country":"India"},{"Id":1004,"City":"Turin","Latitude":45.0792,"Longitude":7.6761,"Country":"Italy"},{"Id":1005,"City":"Tucson","Latitude":32.1541,"Longitude":-110.8787,"Country":"United States"},{"Id":1006,"City":"Hai\u2019an","Latitude":32.532,"Longitude":120.4604,"Country":"China"},{"Id":1007,"City":"Ar Ramadi","Latitude":33.4258,"Longitude":43.2992,"Country":"Iraq"},{"Id":1008,"City":"Laiyang","Latitude":36.9758,"Longitude":120.7136,"Country":"China"},{"Id":1009,"City":"Sale","Latitude":34.0333,"Longitude":-6.8,"Country":"Morocco"},{"Id":1010,"City":"Jalandhar","Latitude":31.2569,"Longitude":75.4432,"Country":"India"},{"Id":1011,"City":"Marseille","Latitude":43.2964,"Longitude":5.37,"Country":"France"},{"Id":1012,"City":"Bucaramanga","Latitude":7.1333,"Longitude":-73,"Country":"Colombia"},{"Id":1013,"City":"Kaifeng Chengguanzhen","Latitude":34.8519,"Longitude":114.3481,"Country":"China"},{"Id":1014,"City":"Ikeja","Latitude":6.6186,"Longitude":3.3426,"Country":"Nigeria"},{"Id":1015,"City":"Eskisehir","Latitude":39.7767,"Longitude":30.5206,"Country":"Turkey"},{"Id":1016,"City":"Saltillo","Latitude":25.4231,"Longitude":-100.9919,"Country":"Mexico"},{"Id":1017,"City":"Gaomi","Latitude":36.3833,"Longitude":119.75,"Country":"China"},{"Id":1018,"City":"Liverpool","Latitude":53.4075,"Longitude":-2.9919,"Country":"United Kingdom"},{"Id":1019,"City":"Ipoh","Latitude":4.5972,"Longitude":101.075,"Country":"Malaysia"},{"Id":1020,"City":"Oran","Latitude":35.6969,"Longitude":-0.6331,"Country":"Algeria"},{"Id":1021,"City":"Portsmouth","Latitude":50.8058,"Longitude":-1.0872,"Country":"United Kingdom"},{"Id":1022,"City":"Southampton","Latitude":50.9025,"Longitude":-1.4042,"Country":"United Kingdom"},{"Id":1023,"City":"Hermosillo","Latitude":29.0989,"Longitude":-110.9542,"Country":"Mexico"},{"Id":1024,"City":"Cochabamba","Latitude":-17.3833,"Longitude":-66.1667,"Country":"Bolivia"},{"Id":1025,"City":"Weichanglu","Latitude":37.1792,"Longitude":119.9333,"Country":"China"},{"Id":1026,"City":"Shache","Latitude":38.4261,"Longitude":77.25,"Country":"China"},{"Id":1027,"City":"Wuxi","Latitude":26.5895,"Longitude":111.8481,"Country":"China"},{"Id":1028,"City":"Leping","Latitude":28.9632,"Longitude":117.1203,"Country":"China"},{"Id":1029,"City":"Hailun","Latitude":47.4585,"Longitude":126.9632,"Country":"China"},{"Id":1030,"City":"Macheng","Latitude":31.1817,"Longitude":115.0189,"Country":"China"},{"Id":1031,"City":"Akure","Latitude":7.25,"Longitude":5.195,"Country":"Nigeria"},{"Id":1032,"City":"Ilorin","Latitude":8.5,"Longitude":4.55,"Country":"Nigeria"},{"Id":1033,"City":"Yuci","Latitude":37.6823,"Longitude":112.7281,"Country":"China"},{"Id":1034,"City":"Saratov","Latitude":51.5333,"Longitude":46.0167,"Country":"Russia"},{"Id":1035,"City":"Erbil","Latitude":36.1912,"Longitude":44.0092,"Country":"Iraq"},{"Id":1036,"City":"Igua\u00E7u","Latitude":-22.74,"Longitude":-43.47,"Country":"Brazil"},{"Id":1037,"City":"Pasig City","Latitude":14.575,"Longitude":121.0833,"Country":"Philippines"},{"Id":1038,"City":"Dehui","Latitude":44.5333,"Longitude":125.7,"Country":"China"},{"Id":1039,"City":"Kalkaji Devi","Latitude":28.5485,"Longitude":77.2513,"Country":"India"},{"Id":1040,"City":"Bhubaneshwar","Latitude":20.27,"Longitude":85.84,"Country":"India"},{"Id":1041,"City":"Honolulu","Latitude":21.3294,"Longitude":-157.846,"Country":"United States"},{"Id":1042,"City":"Tongchuan","Latitude":34.9057,"Longitude":108.9422,"Country":"China"},{"Id":1043,"City":"Cheongju","Latitude":36.6333,"Longitude":127.4833,"Country":"South Korea"},{"Id":1044,"City":"Chengxiang","Latitude":31.4515,"Longitude":121.1043,"Country":"China"},{"Id":1045,"City":"Thessalon\u00EDki","Latitude":40.6403,"Longitude":22.9347,"Country":"Greece"},{"Id":1046,"City":"Warri","Latitude":5.5167,"Longitude":5.75,"Country":"Nigeria"},{"Id":1047,"City":"Sakai","Latitude":34.5733,"Longitude":135.4831,"Country":"Japan"},{"Id":1048,"City":"Pointe-Noire","Latitude":-4.8,"Longitude":11.85,"Country":"Congo (Brazzaville)"},{"Id":1049,"City":"Rongjiawan","Latitude":29.1409,"Longitude":113.1087,"Country":"China"},{"Id":1050,"City":"Mediouna","Latitude":33.45,"Longitude":-7.51,"Country":"Morocco"},{"Id":1051,"City":"Butterworth","Latitude":5.3992,"Longitude":100.3639,"Country":"Malaysia"},{"Id":1052,"City":"Renqiu","Latitude":38.7094,"Longitude":116.1008,"Country":"China"},{"Id":1053,"City":"Xindi","Latitude":29.8182,"Longitude":113.4653,"Country":"China"},{"Id":1054,"City":"Bhayandar","Latitude":19.29,"Longitude":72.85,"Country":"India"},{"Id":1055,"City":"Wu\u2019an","Latitude":36.6941,"Longitude":114.1847,"Country":"China"},{"Id":1056,"City":"S\u00E3o Bernardo do Campo","Latitude":-23.7,"Longitude":-46.55,"Country":"Brazil"},{"Id":1057,"City":"Mandvi","Latitude":19.3,"Longitude":72.85,"Country":"India"},{"Id":1058,"City":"Barinas","Latitude":8.6333,"Longitude":-70.2,"Country":"Venezuela"},{"Id":1059,"City":"Zijinglu","Latitude":34.7513,"Longitude":112.9854,"Country":"China"},{"Id":1060,"City":"Gaoyou","Latitude":32.7847,"Longitude":119.4432,"Country":"China"},{"Id":1061,"City":"Culiac\u00E1n","Latitude":24.8069,"Longitude":-107.3939,"Country":"Mexico"},{"Id":1062,"City":"Hejian","Latitude":38.4451,"Longitude":116.0897,"Country":"China"},{"Id":1063,"City":"Yiyang","Latitude":26.4103,"Longitude":112.3913,"Country":"China"},{"Id":1064,"City":"Puxi","Latitude":35.2125,"Longitude":114.735,"Country":"China"},{"Id":1065,"City":"Androtsy","Latitude":-24.1,"Longitude":46.3,"Country":"Madagascar"},{"Id":1066,"City":"McAllen","Latitude":26.2252,"Longitude":-98.2467,"Country":"United States"},{"Id":1067,"City":"Qingping","Latitude":34.538,"Longitude":113.3796,"Country":"China"},{"Id":1068,"City":"Omaha","Latitude":41.2627,"Longitude":-96.0529,"Country":"United States"},{"Id":1069,"City":"Jo\u00E3o Pessoa","Latitude":-7.12,"Longitude":-34.88,"Country":"Brazil"},{"Id":1070,"City":"Dongyang","Latitude":29.2785,"Longitude":120.2282,"Country":"China"},{"Id":1071,"City":"Quer\u00E9taro","Latitude":20.5875,"Longitude":-100.3928,"Country":"Mexico"},{"Id":1072,"City":"Krak\u00F3w","Latitude":50.0614,"Longitude":19.9372,"Country":"Poland"},{"Id":1073,"City":"George Town","Latitude":5.4144,"Longitude":100.3292,"Country":"Malaysia"},{"Id":1074,"City":"Abaet\u00E9","Latitude":-19.1583,"Longitude":-45.4522,"Country":"Brazil"},{"Id":1075,"City":"Palermo","Latitude":2.8917,"Longitude":-75.4375,"Country":"Colombia"},{"Id":1076,"City":"Valencia","Latitude":39.47,"Longitude":-0.3764,"Country":"Spain"},{"Id":1077,"City":"Xigaz\u00EA","Latitude":29.25,"Longitude":88.8833,"Country":"China"},{"Id":1078,"City":"El Paso","Latitude":31.8476,"Longitude":-106.43,"Country":"United States"},{"Id":1079,"City":"Seyhan","Latitude":36.9831,"Longitude":35.3328,"Country":"Turkey"},{"Id":1080,"City":"Niigata","Latitude":37.9161,"Longitude":139.0364,"Country":"Japan"},{"Id":1081,"City":"Hempstead","Latitude":40.6629,"Longitude":-73.6089,"Country":"United States"},{"Id":1082,"City":"Leeds","Latitude":53.8003,"Longitude":-1.5497,"Country":"United Kingdom"},{"Id":1083,"City":"Hamamatsu","Latitude":34.7108,"Longitude":137.7275,"Country":"Japan"},{"Id":1084,"City":"Bagcilar","Latitude":41.0344,"Longitude":28.8564,"Country":"Turkey"},{"Id":1085,"City":"Xiangxiang","Latitude":27.7389,"Longitude":112.5223,"Country":"China"},{"Id":1086,"City":"Bilbao","Latitude":43.2569,"Longitude":-2.9236,"Country":"Spain"},{"Id":1087,"City":"Chaohucun","Latitude":31.6783,"Longitude":117.7353,"Country":"China"},{"Id":1088,"City":"Fuyang","Latitude":30.0553,"Longitude":119.95,"Country":"China"},{"Id":1089,"City":"Homs","Latitude":34.7333,"Longitude":36.7167,"Country":"Syria"},{"Id":1090,"City":"K\u00FC\u00E7\u00FCk\u00E7ekmece","Latitude":41,"Longitude":28.8,"Country":"Turkey"},{"Id":1091,"City":"Lubango","Latitude":-14.9167,"Longitude":13.5,"Country":"Angola"},{"Id":1092,"City":"Zouping","Latitude":36.8625,"Longitude":117.7424,"Country":"China"},{"Id":1093,"City":"Khujand","Latitude":40.2833,"Longitude":69.6333,"Country":"Tajikistan"},{"Id":1094,"City":"San Luis Potos\u00ED","Latitude":22.1511,"Longitude":-100.9761,"Country":"Mexico"},{"Id":1095,"City":"Nottingham","Latitude":52.9533,"Longitude":-1.15,"Country":"United Kingdom"},{"Id":1096,"City":"Cencheng","Latitude":22.9297,"Longitude":111.0186,"Country":"China"},{"Id":1097,"City":"Dali","Latitude":25.6808,"Longitude":100.3003,"Country":"China"},{"Id":1098,"City":"Hamhung","Latitude":39.9167,"Longitude":127.5333,"Country":"North Korea"},{"Id":1099,"City":"Korla","Latitude":41.7259,"Longitude":86.1746,"Country":"China"},{"Id":1100,"City":"Rajshahi","Latitude":24.3667,"Longitude":88.6,"Country":"Bangladesh"},{"Id":1101,"City":"Erzurum","Latitude":39.9086,"Longitude":41.2769,"Country":"Turkey"},{"Id":1102,"City":"Frankfurt","Latitude":50.1106,"Longitude":8.6822,"Country":"Germany"},{"Id":1103,"City":"Al \u2018Ayn","Latitude":24.2075,"Longitude":55.7447,"Country":"United Arab Emirates"},{"Id":1104,"City":"Songzi","Latitude":30.1772,"Longitude":111.7732,"Country":"China"},{"Id":1105,"City":"Albuquerque","Latitude":35.1054,"Longitude":-106.6465,"Country":"United States"},{"Id":1106,"City":"Patiala","Latitude":30.34,"Longitude":76.38,"Country":"India"},{"Id":1107,"City":"Laixi","Latitude":36.8667,"Longitude":120.5333,"Country":"China"},{"Id":1108,"City":"Bahawalpur","Latitude":29.3956,"Longitude":71.6836,"Country":"Pakistan"},{"Id":1109,"City":"Zhongba","Latitude":31.7761,"Longitude":104.7406,"Country":"China"},{"Id":1110,"City":"Kaduna","Latitude":10.5167,"Longitude":7.4333,"Country":"Nigeria"},{"Id":1111,"City":"Qingnian","Latitude":36.8494,"Longitude":115.7061,"Country":"China"},{"Id":1112,"City":"San Pedro Sula","Latitude":15.5,"Longitude":-88.0333,"Country":"Honduras"},{"Id":1113,"City":"Qamdo","Latitude":31.1375,"Longitude":97.1777,"Country":"China"},{"Id":1114,"City":"Xinhualu","Latitude":34.3962,"Longitude":113.7249,"Country":"China"},{"Id":1115,"City":"Nerima","Latitude":35.7355,"Longitude":139.6517,"Country":"Japan"},{"Id":1116,"City":"Guangshui","Latitude":31.6189,"Longitude":113.8229,"Country":"China"},{"Id":1117,"City":"Pietermaritzburg","Latitude":-29.6167,"Longitude":30.3833,"Country":"South Africa"},{"Id":1118,"City":"Baardheere","Latitude":2.3333,"Longitude":42.2833,"Country":"Somalia"},{"Id":1119,"City":"Tlajomulco de Z\u00FA\u00F1iga","Latitude":20.4736,"Longitude":-103.4431,"Country":"Mexico"},{"Id":1120,"City":"Samarinda","Latitude":-0.5,"Longitude":117.1378,"Country":"Indonesia"},{"Id":1121,"City":"Changhua","Latitude":24.0667,"Longitude":120.5333,"Country":"Taiwan"},{"Id":1122,"City":"Sizhan","Latitude":39.0099,"Longitude":106.3694,"Country":"China"},{"Id":1123,"City":"Ciudad Guayana","Latitude":8.3667,"Longitude":-62.65,"Country":"Venezuela"},{"Id":1124,"City":"C\u00FAcuta","Latitude":7.8942,"Longitude":-72.5039,"Country":"Colombia"},{"Id":1125,"City":"Dhulia","Latitude":20.8997,"Longitude":74.7697,"Country":"India"},{"Id":1126,"City":"Burco","Latitude":9.5279,"Longitude":45.5345,"Country":"Somalia"},{"Id":1127,"City":"Licheng","Latitude":31.4174,"Longitude":119.4786,"Country":"China"},{"Id":1128,"City":"Ota-ku","Latitude":35.5613,"Longitude":139.716,"Country":"Japan"},{"Id":1129,"City":"Thiruvananthapuram","Latitude":8.4875,"Longitude":76.9525,"Country":"India"},{"Id":1130,"City":"Tyumen","Latitude":57.15,"Longitude":65.5333,"Country":"Russia"},{"Id":1131,"City":"Nampula","Latitude":-15.1167,"Longitude":39.2667,"Country":"Mozambique"},{"Id":1132,"City":"Zaporizhzhia","Latitude":47.85,"Longitude":35.1175,"Country":"Ukraine"},{"Id":1133,"City":"Kyaukse","Latitude":21.6131,"Longitude":96.1303,"Country":"Myanmar"},{"Id":1134,"City":"Chengguan","Latitude":35.5256,"Longitude":113.6976,"Country":"China"},